"","상호명","지점명","상권업종대분류명","상권업종중분류명","상권업종소분류명","행정동명","도로명주소","경도","위도","행정동코드"
"1","커피빈코리아선릉로93길점","코리아선릉로93길점","음식","커피점/카페","커피전문점/카페/다방","역삼1동","서울특별시 강남구 선릉로93길 6",127.047883157395,37.505675040058,1168064000
"2","커피빈","코리아교대점","음식","커피점/카페","커피전문점/카페/다방","서초1동","서울특별시 서초구 서초중앙로 118",127.014217033954,37.4923876590647,1165051000
"3","고려대학교교육관쎄리오점",NA,"음식","커피점/카페","커피전문점/카페/다방","안암동","서울특별시 성북구 안암로 145",127.031701809695,37.5884849860916,1129060000
"4","스완카페트",NA,"음식","커피점/카페","커피전문점/카페/다방","대림3동","서울특별시 영등포구 도신로10가길 11-1",126.897710439978,37.5036933368184,1156072000
"5","왕실",NA,"음식","커피점/카페","커피전문점/카페/다방","명동","서울특별시 중구 남대문로 52-13",126.982418808029,37.562273608482,1114055000
"6","파스쿠찌","디큐브아트센터2호점","음식","커피점/카페","커피전문점/카페/다방","신도림동","서울특별시 구로구 경인로 662",126.888484621418,37.5080580382841,1153051000
"7","카페필로네",NA,"음식","커피점/카페","커피전문점/카페/다방","서초2동","서울특별시 서초구 남부순환로 2583",127.032940495121,37.4847482687652,1165052000
"8","메머드커피",NA,"음식","커피점/카페","커피전문점/카페/다방","서교동","서울특별시 마포구 와우산로 149",126.929691877693,37.5545990573133,1144066000
"9","커피빈","코리아대학로대명거리점","음식","커피점/카페","커피전문점/카페/다방","혜화동","서울특별시 종로구 대명길 25",127.000170846364,37.5831492497775,1111065000
"10","요거프레소","쌍문점","음식","커피점/카페","커피전문점/카페/다방","쌍문2동","서울특별시 도봉구 도당로 7",127.034745665547,37.6587277238356,1132067000
"11","망고식스","명동페이리스점","음식","커피점/카페","커피전문점/카페/다방","명동","서울특별시 중구 명동4길 26",126.983728102857,37.5625461885785,1114055000
"12","바빈스커피",NA,"음식","커피점/카페","커피전문점/카페/다방","역삼2동","서울특별시 강남구 테헤란로 156",127.036602597823,37.5007088680698,1168065000
"13","커피빈","코리아선릉역점","음식","커피점/카페","커피전문점/카페/다방","역삼1동","서울특별시 강남구 테헤란로 335",127.048222908235,37.5047496908904,1168064000
"14","대치휴게소",NA,"음식","커피점/카페","커피전문점/카페/다방","대치4동","서울특별시 강남구 삼성로 319",127.059713096918,37.5003274192559,1168063000
"15","악스카페테리아",NA,"음식","커피점/카페","커피전문점/카페/다방","광장동","서울특별시 광진구 구천면로 20",127.107951436124,37.5457183340134,1121581000
"16","Cafe문달",NA,"음식","커피점/카페","커피전문점/카페/다방","방배1동","서울특별시 서초구 방배로19길 25",126.993669214693,37.4848347786317,1165060000
"17","CARIBOUCOFFEE",NA,"음식","커피점/카페","커피전문점/카페/다방","신촌동","서울특별시 서대문구 이화여대8길 3",126.946053850812,37.5588640039904,1141058500
"18","urbantable",NA,"음식","커피점/카페","커피전문점/카페/다방","혜화동","서울특별시 종로구 창경궁로 240-7",126.999026012873,37.582400693799,1111065000
"19","MUNCHBEANS",NA,"음식","커피점/카페","커피전문점/카페/다방","구로3동","서울특별시 구로구 디지털로33길 12",126.896142027835,37.4865407988684,1153054000
"20","더함",NA,"음식","커피점/카페","커피전문점/카페/다방","불광2동","서울특별시 은평구 연서로41길 13-3",126.927595808978,37.6257797569824,1138053000
"21","슬로우스텝",NA,"음식","커피점/카페","커피전문점/카페/다방","이화동","서울특별시 종로구 대학로8가길 89",127.003513946227,37.5820692395601,1111064000
"22","Coffeeis...커피이즈",NA,"음식","커피점/카페","커피전문점/카페/다방","중앙동","서울특별시 관악구 은천로 172-1",126.954329188535,37.4857996632634,1162061500
"23","chosecoffee",NA,"음식","커피점/카페","커피전문점/카페/다방","일원본동","서울특별시 강남구 광평로31길 27",127.089758700276,37.4848302444562,1168072000
"24","엘본그랑카페","현대목동점","음식","커피점/카페","커피전문점/카페/다방","목1동","서울특별시 양천구 목동동로 257",126.874681763736,37.5271465422093,1147051000
"25","스타벅스","이태원점","음식","커피점/카페","커피전문점/카페/다방","이태원1동","서울특별시 용산구 이태원로 188",126.994781275664,37.5343029422413,1117065000
"26","카페드림","역삼문화센터점","음식","커피점/카페","커피전문점/카페/다방","역삼1동","서울특별시 강남구 역삼로7길 16",127.033357964264,37.4953481127938,1168064000
"27","아라바카뜰",NA,"음식","커피점/카페","커피전문점/카페/다방","역삼1동","서울특별시 강남구 역삼로5길 12-1",127.032369049131,37.4948624571224,1168064000
"28","커피볶는집시다모",NA,"음식","커피점/카페","커피전문점/카페/다방","응암1동","서울특별시 은평구 응암로 302-1",126.921048245303,37.5983197298652,1138058000
"29","심포니커피숍",NA,"음식","커피점/카페","커피전문점/카페/다방","대흥동","서울특별시 마포구 대흥로 193",126.945692793399,37.5563739088644,1144060000
"30","삼성에버랜드검찰청웰스토리카페",NA,"음식","커피점/카페","커피전문점/카페/다방","서초3동","서울특별시 서초구 반포대로 158",127.008042690164,37.4949490343515,1165053000
"31","세움카페지점",NA,"음식","커피점/카페","커피전문점/카페/다방","방학1동","서울특별시 도봉구 마들로 656",127.047107804994,37.6687035438169,1132069000
"32","전광수커피",NA,"음식","커피점/카페","커피전문점/카페/다방","성수1가2동","서울특별시 성동구 성수일로 77",127.050273963735,37.5472778590865,1120066000
"33","토프레소","은평구청점","음식","커피점/카페","커피전문점/카페/다방","녹번동","서울특별시 은평구 은평로 193-1",126.928877816383,37.601959138902,1138051000
"34","캣카페",NA,"음식","커피점/카페","커피전문점/카페/다방","종로1.2.3.4가동","서울특별시 종로구 인사동길 11-1",126.986658289865,37.5718430973139,1111061500
"35","placeJ",NA,"음식","커피점/카페","커피전문점/카페/다방","능동","서울특별시 광진구 능동로 268",127.078021110834,37.5538321613174,1121578000
"36","이디야커피","신길역점","음식","커피점/카페","커피전문점/카페/다방","신길1동","서울특별시 영등포구 영등포로 353",126.918061930143,37.5151175359347,1156063000
"37","Manna",NA,"음식","커피점/카페","생과일주스전문점","수서동","서울특별시 강남구 광평로 280",127.103094324391,37.4873110374136,1168075000
"38","리버스로스터",NA,"음식","커피점/카페","커피전문점/카페/다방","신월3동","서울특별시 양천구 가로공원로 71",126.82394628602,37.5354372768401,1147058000
"39","싱",NA,"음식","커피점/카페","커피전문점/카페/다방","가락본동","서울특별시 송파구 송파대로28길 27",127.120080194832,37.4948815412923,1171062000
"40","빌리엔젤마리오아울렛","마리오아울렛","음식","커피점/카페","커피전문점/카페/다방","가산동","서울특별시 금천구 벚꽃로 266",126.885068137309,37.47843551394,1154551000
"41","투썸플레이스충정로역",NA,"음식","커피점/카페","커피전문점/카페/다방","충현동","서울특별시 서대문구 충정로 13",126.962600471612,37.5605603468457,1141056500
"42","커피빈코리아강남역먹자골목점","코리아강남역먹자골목점","음식","커피점/카페","커피전문점/카페/다방","역삼1동","서울특별시 강남구 테헤란로1길 29",127.027279995112,37.5001008472006,1168064000
"43","쥬씨","광진구청점","음식","커피점/카페","커피전문점/카페/다방","구의1동","서울특별시 광진구 아차산로49길 36",127.084388474023,37.5384737240544,1121585000
"44","커피빈","코리아현대자동차여의도점","음식","커피점/카페","커피전문점/카페/다방","여의동","서울특별시 영등포구 국제금융로 20",126.927277014357,37.5248788091876,1156054000
"45","아사녀",NA,"음식","커피점/카페","커피전문점/카페/다방","종로1.2.3.4가동","서울특별시 종로구 수표로 93-1",126.989224570524,37.569585463108,1111061500
"46","카페플래닝스쿨",NA,"음식","커피점/카페","커피전문점/카페/다방","구의1동","서울특별시 광진구 자양로 124",127.083525054102,37.5387553631958,1121585000
"47","연미",NA,"음식","커피점/카페","커피전문점/카페/다방","시흥3동","서울특별시 금천구 시흥대로 46",126.903763212521,37.437765771937,1154569000
"48","정원",NA,"음식","커피점/카페","커피전문점/카페/다방","한강로동","서울특별시 용산구 청파로 139-4",126.966814761055,37.534052561679,1117062500
"49","할리스커피청계1가점","청계1가점","음식","커피점/카페","커피전문점/카페/다방","종로1.2.3.4가동","서울특별시 종로구 청계천로 65",126.984752378748,37.5688082330176,1111061500
"50","코코브루니","홍대점","음식","커피점/카페","커피전문점/카페/다방","서교동","서울특별시 마포구 홍익로6길 57",126.924366086819,37.5566230473601,1144066000
"51","티마인드",NA,"음식","커피점/카페","커피전문점/카페/다방","압구정동","서울특별시 강남구 압구정로50길 18",127.037709927511,37.5272178772065,1168054500
"52","커피빈","코리아신촌현대백화점점","음식","커피점/카페","커피전문점/카페/다방","신촌동","서울특별시 서대문구 신촌로 83",126.935827820491,37.556069154454,1141058500
"53","무지개",NA,"음식","커피점/카페","커피전문점/카페/다방","장안1동","서울특별시 동대문구 한천로10길 32",127.06299457997,37.5662114085878,1123065000
"54","커피빈","코리아청담성당점","음식","커피점/카페","커피전문점/카페/다방","청담동","서울특별시 강남구 삼성로 716",127.050021491746,37.5199018862561,1168056500
"55","커피빈","코리아청담에스점","음식","커피점/카페","커피전문점/카페/다방","청담동","서울특별시 강남구 압구정로 461",127.047215839761,37.5252495612624,1168056500
"56","빈스투커피","상수역점","음식","커피점/카페","커피전문점/카페/다방","서강동","서울특별시 마포구 독막로 87",126.92330319151,37.547900307398,1144065500
"57","커피빈","코리아강남역랭기지타워점","음식","커피점/카페","커피전문점/카페/다방","역삼1동","서울특별시 강남구 테헤란로4길 28",127.030074547889,37.4965196043765,1168064000
"58","남양",NA,"음식","커피점/카페","커피전문점/카페/다방","소공동","서울특별시 중구 세종대로16길 27",126.978419509149,37.563374383009,1114052000
"59","스타벅스종로3가점","종로3가점","음식","커피점/카페","커피전문점/카페/다방","종로1.2.3.4가동","서울특별시 종로구 종로 113-1",126.990207240455,37.5705850186896,1111061500
"60","이호다방",NA,"음식","커피점/카페","커피전문점/카페/다방","종로5.6가동","서울특별시 종로구 종로33길 3",127.001336645037,37.5713104229114,1111063000
"61","탐앤탐스커피숍",NA,"음식","커피점/카페","커피전문점/카페/다방","명동","서울특별시 중구 명동8나길 51",126.982061630144,37.5610721429038,1114055000
"62","COFFEEN",NA,"음식","커피점/카페","커피전문점/카페/다방","사직동","서울특별시 종로구 사직로12길 2",126.971049896735,37.5757807827993,1111053000
"63","동호",NA,"음식","커피점/카페","커피전문점/카페/다방","종로5.6가동","서울특별시 종로구 종로35길 8",127.004027941004,37.5715313888967,1111063000
"64","w몰스무디킹",NA,"음식","커피점/카페","생과일주스전문점","가산동","서울특별시 금천구 디지털로 188",126.887662548608,37.4773156374838,1154551000
"65","아르디카페","광화문점","음식","커피점/카페","커피전문점/카페/다방","종로1.2.3.4가동","서울특별시 종로구 세종대로 178",126.977778976013,37.5721449802485,1111061500
"66","엔제리너스","커피여의도리버타워점","음식","커피점/카페","커피전문점/카페/다방","여의동","서울특별시 영등포구 63로 36",126.938611257408,37.519403747596,1156054000
"67","롯데시네마김포공항엔제리너스",NA,"음식","커피점/카페","커피전문점/카페/다방","방화2동","서울특별시 강서구 하늘길 38",126.80076003963,37.5659562255298,1150064000
"68","보나비아티제","서울호텔점","음식","커피점/카페","커피전문점/카페/다방","장충동","서울특별시 중구 동호로 249",127.007686128987,37.5577491936384,1114058000
"69","미루카페",NA,"음식","커피점/카페","커피전문점/카페/다방","삼선동","서울특별시 성북구 동소문로20길 28-3",127.016459988786,37.5911521899295,1129055500
"70","수피아",NA,"음식","커피점/카페","커피전문점/카페/다방","대림3동","서울특별시 영등포구 도신로 31",126.894813409666,37.5061080966751,1156072000
"71","cafeIYA",NA,"음식","커피점/카페","커피전문점/카페/다방","도곡1동","서울특별시 강남구 강남대로58길 61",127.036822787417,37.4906098238984,1168065500
"72","더메디라운지",NA,"음식","커피점/카페","커피전문점/카페/다방","잠원동","서울특별시 서초구 강남대로107길 6",127.018069722805,37.5185593037552,1165054000
"73","동네목수의작은카페",NA,"음식","커피점/카페","커피전문점/카페/다방","삼선동","서울특별시 성북구 삼선교로4라길 4",127.007613234132,37.5820136703881,1129055500
"74","카페루카코리아",NA,"음식","커피점/카페","커피전문점/카페/다방","종로1.2.3.4가동","서울특별시 종로구 창경궁로 77",126.997650562969,37.5692968895264,1111061500
"75","투썸플레이스가산대성디폴리스점","가산대성디폴리스점","음식","커피점/카페","커피전문점/카페/다방","가산동","서울특별시 금천구 서부샛길 606",126.876995544881,37.4799449018353,1154551000
"76","코코브루니","미아점","음식","커피점/카페","커피전문점/카페/다방","길음2동","서울특별시 성북구 동소문로 315",127.028725560472,37.6083915431599,1129068500
"77","300420",NA,"음식","커피점/카페","커피전문점/카페/다방","문래동","서울특별시 영등포구 경인로 775",126.897525378821,37.5147384071488,1156060500
"78","파스텔드나따",NA,"음식","커피점/카페","커피전문점/카페/다방","회기동","서울특별시 동대문구 회기로 134-1",127.051402887448,37.5912309555517,1123071000
"79","투썸플레이스압구정51케이",NA,"음식","커피점/카페","커피전문점/카페/다방","압구정동","서울특별시 강남구 압구정로30길 45",127.029386418917,37.5243384831738,1168054500
"80","고디바_","가로수길점","음식","커피점/카페","커피전문점/카페/다방","신사동","서울특별시 강남구 압구정로12길 45",127.023003951165,37.5210060306711,1168051000
"81","모리나리까페",NA,"음식","커피점/카페","커피전문점/카페/다방","회현동","서울특별시 중구 소공로 29",126.982794496425,37.5579518408817,1114054000
"82","까페더블해피니스",NA,"음식","커피점/카페","커피전문점/카페/다방","영등포동","서울특별시 영등포구 영중로 9",126.9055549085,37.517182828822,1156053500
"83","요거프레소","문래점","음식","커피점/카페","커피전문점/카페/다방","문래동","서울특별시 영등포구 문래로8길 5",126.886143300932,37.520236093938,1156060500
"84","카페바우하우스",NA,"음식","커피점/카페","커피전문점/카페/다방","서초3동","서울특별시 서초구 남부순환로 2364",127.009808267822,37.4777086304152,1165053000
"85","엔제리너스","커피불광역점","음식","커피점/카페","커피전문점/카페/다방","대조동","서울특별시 은평구 통일로 741",126.92859493017,37.6114174048567,1138057000
"86","신세계푸드",NA,"음식","커피점/카페","커피전문점/카페/다방","역삼1동","서울특별시 강남구 강남대로 298",127.032148559881,37.4900399995391,1168064000
"87","오가다",NA,"음식","커피점/카페","전통찻집/인삼찻집","여의동","서울특별시 영등포구 의사당대로 101",126.923948554327,37.5218931054506,1156054000
"88","후니드브로드카페",NA,"음식","커피점/카페","커피전문점/카페/다방","신대방2동","서울특별시 동작구 여의대방로 74",126.914475734007,37.4963969428943,1159068000
"89","사주카페자미",NA,"음식","커피점/카페","사주카페","신촌동","서울특별시 서대문구 이화여대1안길 12",126.944451411423,37.5577233879368,1141058500
"90","쉬어가는모퉁이커피한잔",NA,"음식","커피점/카페","커피전문점/카페/다방","상도1동","서울특별시 동작구 상도로55길 1",126.953412171715,37.4972258775655,1159053000
"91","카페산다",NA,"음식","커피점/카페","커피전문점/카페/다방","낙성대동","서울특별시 관악구 낙성대로 22-13",126.958373439955,37.4771131998525,1162058500
"92","지붕",NA,"음식","커피점/카페","커피전문점/카페/다방","신내1동","서울특별시 중랑구 용마산로 615",127.100606665203,37.6059878107527,1126068000
"93","드림커피",NA,"음식","커피점/카페","커피전문점/카페/다방","등촌3동","서울특별시 강서구 양천로 482",126.853908585069,37.5612491785923,1150053500
"94","엠즈씨드폴바셋","여의도점","음식","커피점/카페","커피전문점/카페/다방","여의동","서울특별시 영등포구 여의대로 66",126.923695587992,37.5245398691431,1156054000
"95","카페에스비",NA,"음식","커피점/카페","커피전문점/카페/다방","신월1동","서울특별시 양천구 남부순환로 435",126.833256954218,37.5289881225617,1147056000
"96","씨티카페",NA,"음식","커피점/카페","커피전문점/카페/다방","역삼1동","서울특별시 강남구 역삼로7길 22",127.032879555995,37.4956145139892,1168064000
"97","주스에비뉴",NA,"음식","커피점/카페","커피전문점/카페/다방","대치1동","서울특별시 강남구 남부순환로 2907",127.057081452328,37.4919536395946,1168060000
"98","카페레인",NA,"음식","커피점/카페","커피전문점/카페/다방","방화2동","서울특별시 강서구 양천로14길 85-2",126.808869889688,37.5691829194914,1150064000
"99","스타벅스","신사2점","음식","커피점/카페","커피전문점/카페/다방","잠원동","서울특별시 서초구 강남대로 581",127.019762756075,37.5136626341355,1165054000
"100","공차","현대백화점무역센터점","음식","커피점/카페","커피전문점/카페/다방","삼성1동","서울특별시 강남구 테헤란로 517",127.05974496335,37.5086083814458,1168058000
"101","153커피앤해피",NA,"음식","커피점/카페","커피전문점/카페/다방","송중동","서울특별시 강북구 도봉로 32",127.030685494292,37.6118406150505,1130554500
"102","화이트엔젤",NA,"음식","커피점/카페","커피전문점/카페/다방","천호2동","서울특별시 강동구 올림픽로70길 61",127.126969133867,37.5393908971807,1174061000
"103","카페샤빌레","등촌점","음식","커피점/카페","커피전문점/카페/다방","등촌1동","서울특별시 강서구 양천로 600",126.864658478395,37.5554692961595,1150052000
"104","폴바셋","신문로점","음식","커피점/카페","커피전문점/카페/다방","사직동","서울특별시 종로구 새문안로3길 12",126.972967563172,37.5713373346185,1111053000
"105","북아현마을북까페",NA,"음식","커피점/카페","커피전문점/카페/다방","북아현동","서울특별시 서대문구 북아현로 24",126.957024306687,37.5594660103025,1141055500
"106","이디야커피","이마트구로점","음식","커피점/카페","커피전문점/카페/다방","구로3동","서울특별시 구로구 디지털로32길 43",126.897869806414,37.4843854057524,1153054000
"107","탐엔탐스","신도림테크노점","음식","커피점/카페","커피전문점/카페/다방","구로5동","서울특별시 구로구 새말로 97",126.89020763235,37.5070380397769,1153056000
"108","투썸플레이스코엑스메가박스점","코엑스메가박스점","음식","커피점/카페","커피전문점/카페/다방","삼성1동","서울특별시 강남구 영동대로 513",127.057100286394,37.5129393969289,1168058000
"109","엠즈씨드폴바셋이대점","이대점","음식","커피점/카페","커피전문점/카페/다방","신촌동","서울특별시 서대문구 이화여대길 30",126.945915487663,37.5582410509728,1141058500
"110","미스터커피로스터리",NA,"음식","커피점/카페","커피전문점/카페/다방","가산동","서울특별시 금천구 가산디지털1로 119",126.882910182892,37.4760543861366,1154551000
"111","에이치파이브-117",NA,"음식","커피점/카페","커피전문점/카페/다방","효창동","서울특별시 용산구 효창원로62길 19",126.9623211828,37.5398879726957,1117058000
"112","코와핀",NA,"음식","커피점/카페","커피전문점/카페/다방","전농1동","서울특별시 동대문구 답십리로11길 30-22",127.046471149971,37.5792794223579,1123056000
"113","비씨팔백","상도점","음식","커피점/카페","커피전문점/카페/다방","상도2동","서울특별시 동작구 상도로 231",126.944486694746,37.5054451220309,1159054000
"114","자니로켓카페","영등포점","음식","커피점/카페","커피전문점/카페/다방","영등포동","서울특별시 영등포구 영중로 9",126.9055549085,37.517182828822,1156053500
"115","자양다방",NA,"음식","커피점/카페","커피전문점/카페/다방","자양3동","서울특별시 광진구 뚝섬로 503",127.065996968164,37.5360680506338,1121584000
"116","카페테지움",NA,"음식","커피점/카페","커피전문점/카페/다방","대치2동","서울특별시 강남구 삼성로 334",127.059856504817,37.5015179558592,1168061000
"117","상상아트홀카페",NA,"음식","커피점/카페","커피전문점/카페/다방","대치2동","서울특별시 강남구 영동대로 416",127.065312595718,37.5065801398546,1168061000
"118","캥스커피집",NA,"음식","커피점/카페","커피전문점/카페/다방","중곡2동","서울특별시 광진구 능동로40길 8",127.080537744739,37.5581047424551,1121575000
"119","할리스커피","선릉점","음식","커피점/카페","커피전문점/카페/다방","대치4동","서울특별시 강남구 선릉로86길 11",127.050513848898,37.5033624806187,1168063000
"120","사주카페미즈",NA,"음식","커피점/카페","사주카페","대치2동","서울특별시 강남구 영동대로 217",127.068369499069,37.4981433609313,1168061000
"121","두공간",NA,"음식","커피점/카페","커피전문점/카페/다방","갈현2동","서울특별시 은평구 연서로29길 7",126.919372438535,37.6186586837604,1138055200
"122","간단하지만특별한화피디Cafe","에델리아하이마트점","음식","커피점/카페","커피전문점/카페/다방","대치2동","서울특별시 강남구 삼성로 156",127.063815420955,37.4942328088958,1168061000
"123","CAFEDURIP",NA,"음식","커피점/카페","커피전문점/카페/다방","잠실2동","서울특별시 송파구 올림픽로 145",127.087019799804,37.5119760446614,1171067000
"124","메디찌커피숍",NA,"음식","커피점/카페","커피전문점/카페/다방","광장동","서울특별시 광진구 아차산로78길 147",127.109958451898,37.5482384073485,1121581000
"125","주빈커피",NA,"음식","커피점/카페","커피전문점/카페/다방","여의동","서울특별시 영등포구 의사당대로 127",126.926163737378,37.5204625862643,1156054000
"126","어반라이프",NA,"음식","커피점/카페","커피전문점/카페/다방","대치4동","서울특별시 강남구 선릉로86길 6-6",127.050408633027,37.5027399062119,1168063000
"127","문스트럭",NA,"음식","커피점/카페","커피전문점/카페/다방","대치4동","서울특별시 강남구 도곡로 401",127.053252565617,37.496959928714,1168063000
"128","할리스도심공항점2",NA,"음식","커피점/카페","커피전문점/카페/다방","삼성1동","서울특별시 강남구 테헤란로87길 22",127.059426824816,37.5096240415368,1168058000
"129","인광로스팅커피",NA,"음식","커피점/카페","커피전문점/카페/다방","석촌동","서울특별시 송파구 송파대로 397",127.108994744064,37.5027277856074,1171060000
"130","cafe멍",NA,"음식","커피점/카페","커피전문점/카페/다방","가락2동","서울특별시 송파구 동남로18길 49",127.135056907272,37.4925953159965,1171063200
"131","아카데미카페",NA,"음식","커피점/카페","커피전문점/카페/다방","대치2동","서울특별시 강남구 도곡로 510",127.06216110792,37.4990133147849,1168061000
"132","이디야커피","중계롯데우성점","음식","커피점/카페","커피전문점/카페/다방","중계1동","서울특별시 노원구 노원로22길 34",127.072753764215,37.646364068414,1135062100
"133","엠엠티에이치005",NA,"음식","커피점/카페","커피전문점/카페/다방","소공동","서울특별시 중구 세종대로18길 8-2",126.977577069176,37.5637275069839,1114052000
"134","카페원두마크CAFEWONDUMARK",NA,"음식","커피점/카페","커피전문점/카페/다방","신사2동","서울특별시 은평구 증산로17길 64",126.906824779834,37.5921339059208,1138063200
"135","부나빈",NA,"음식","커피점/카페","커피전문점/카페/다방","양재1동","서울특별시 서초구 양재대로2길 109",127.013767308091,37.4560532566599,1165065100
"136","커피베이신방화역점","신방화역점","음식","커피점/카페","커피전문점/카페/다방","방화1동","서울특별시 강서구 마곡중앙5로 87",126.817753621941,37.5671818375472,1150063000
"137","블렌드13",NA,"음식","커피점/카페","커피전문점/카페/다방","가산동","서울특별시 금천구 가산디지털2로 14",126.884237439568,37.4696694856308,1154551000
"138","코레일유통커피엔스위트",NA,"음식","커피점/카페","커피전문점/카페/다방","가산동","서울특별시 금천구 벚꽃로 115",126.8895035682,37.4659797412796,1154551000
"139","cafe내자리",NA,"음식","커피점/카페","커피전문점/카페/다방","서초4동","서울특별시 서초구 사평대로56길 7",127.023552517801,37.5032147745452,1165053100
"140","대익보이차",NA,"음식","커피점/카페","커피전문점/카페/다방","역삼1동","서울특별시 강남구 테헤란로 119",127.030637877307,37.4993084894467,1168064000
"141","테이크아웃커피전문점",NA,"음식","커피점/카페","커피전문점/카페/다방","신대방2동","서울특별시 동작구 보라매로19길 5-1",126.927432112834,37.4974433708648,1159068000
"142","SDS커피&",NA,"음식","커피점/카페","커피전문점/카페/다방","잠실6동","서울특별시 송파구 올림픽로35길 123",127.101205783395,37.5165721097163,1171071000
"143","할리스","에프앤비노원2호점","음식","커피점/카페","커피전문점/카페/다방","상계2동","서울특별시 노원구 상계로 63-7",127.061872354359,37.6565047822047,1135064000
"144","백인대장카페",NA,"음식","커피점/카페","커피전문점/카페/다방","목5동","서울특별시 양천구 목동동로 393",126.880078857156,37.5361902176005,1147055000
"145","폴바셋","국회의사당역점","음식","커피점/카페","커피전문점/카페/다방","여의동","서울특별시 영등포구 국회대로68길 18",126.919746423142,37.5285224640854,1156054000
"146","토끼와거북이",NA,"음식","커피점/카페","커피전문점/카페/다방","대흥동","서울특별시 마포구 서강대길 12",126.939897167933,37.549239833055,1144060000
"147","커피커피플리즈",NA,"음식","커피점/카페","커피전문점/카페/다방","역삼1동","서울특별시 강남구 강남대로92길 17",127.028762805162,37.499130897972,1168064000
"148","할리스커피","국기원점","음식","커피점/카페","커피전문점/카페/다방","역삼1동","서울특별시 강남구 강남대로94길 28",127.029581894014,37.4996332098094,1168064000
"149","카르페디엠",NA,"음식","커피점/카페","커피전문점/카페/다방","영등포본동","서울특별시 영등포구 경인로 846",126.907647192475,37.51566141404,1156051500
"150","올몰",NA,"음식","커피점/카페","커피전문점/카페/다방","역삼1동","서울특별시 강남구 테헤란로 146",127.035469247122,37.5000148174854,1168064000
"151","카페헐리우드",NA,"음식","커피점/카페","커피전문점/카페/다방","신촌동","서울특별시 서대문구 성산로 551",126.945657134462,37.5653299268953,1141058500
"152","브레쉬에비뉴","우성아파트점","음식","커피점/카페","커피전문점/카페/다방","잠실7동","서울특별시 송파구 올림픽로4길 40",127.074183991226,37.5071816284289,1171072000
"153","르마들렝",NA,"음식","커피점/카페","커피전문점/카페/다방","성수2가3동","서울특별시 성동구 광나루로 328",127.06622133991,37.5480177644176,1120069000
"154","청구성심병원점",NA,"음식","커피점/카페","커피전문점/카페/다방","갈현1동","서울특별시 은평구 통일로 873",126.919657624874,37.6208688166232,1138055100
"155","커피빈","코리아역삼역4번출구점","음식","커피점/카페","커피전문점/카페/다방","역삼1동","서울특별시 강남구 테헤란로 143",127.034884401544,37.5006407794803,1168064000
"156","커피,와+,버블티",NA,"음식","커피점/카페","커피전문점/카페/다방","화곡본동","서울특별시 강서구 초록마을로 36",126.846816895669,37.5425557590345,1150059000
"157","미스터디저트",NA,"음식","커피점/카페","커피전문점/카페/다방","대치2동","서울특별시 강남구 삼성로 306",127.06086642928,37.4994445473203,1168061000
"158","폴바셋강남구청역점","강남구청역점","음식","커피점/카페","커피전문점/카페/다방","청담동","서울특별시 강남구 학동로 401",127.041623287901,37.5175814055205,1168056500
"159","커피앤",NA,"음식","커피점/카페","커피전문점/카페/다방","문정2동","서울특별시 송파구 충민로 66",127.124940952848,37.477608217824,1171064200
"160","설빙","강남역2호점","음식","커피점/카페","커피전문점/카페/다방","역삼1동","서울특별시 강남구 봉은사로2길 21",127.02611857224,37.5033170530789,1168064000
"161","아라코북카페지점",NA,"음식","커피점/카페","커피전문점/카페/다방","반포4동","서울특별시 서초구 반포대로 201",127.002861827712,37.4976085787109,1165058100
"162","설빙",NA,"음식","커피점/카페","커피전문점/카페/다방","신대방2동","서울특별시 동작구 보라매로3길 29",126.92483028013,37.4911844651666,1159068000
"163","코레일유통커피앤스위트","가산점","음식","커피점/카페","커피전문점/카페/다방","가산동","서울특별시 금천구 벚꽃로 309",126.882545204463,37.4815833642367,1154551000
"164","제이에스커피랩",NA,"음식","커피점/카페","커피전문점/카페/다방","방배4동","서울특별시 서초구 서초대로1길 21",126.983119834993,37.4881504333416,1165062100
"165","카페반디앤루니스",NA,"음식","커피점/카페","커피전문점/카페/다방","서원동","서울특별시 관악구 신림로 330",126.930215862294,37.4838447505118,1162064500
"166","폴바셋서울세관사거리",NA,"음식","커피점/카페","커피전문점/카페/다방","논현2동","서울특별시 강남구 언주로 702",127.035729750176,37.5158124255606,1168053100
"167","핸즈온캠퍼스",NA,"음식","커피점/카페","커피전문점/카페/다방","한강로동","서울특별시 용산구 청파로 74",126.959600845599,37.5328899510721,1117062500
"168","DUDART",NA,"음식","커피점/카페","커피전문점/카페/다방","천호2동","서울특별시 강동구 구천면로 202",127.127074087312,37.5400944963541,1174061000
"169","AVECMOI",NA,"음식","커피점/카페","커피전문점/카페/다방","길동","서울특별시 강동구 천중로51길 56",127.144916856439,37.5432525946975,1174068500
"170","꼼작",NA,"음식","커피점/카페","커피전문점/카페/다방","갈현2동","서울특별시 은평구 갈현로 181-17",126.911108991616,37.6143929326138,1138055200
"171","카흐베하네",NA,"음식","커피점/카페","커피전문점/카페/다방","중곡3동","서울특별시 광진구 면목로 137",127.080875496996,37.5656221228895,1121576000
"172","Asthoughlhadwings..",NA,"음식","커피점/카페","커피전문점/카페/다방","압구정동","서울특별시 강남구 도산대로33길 16",127.030009756171,37.5216314389859,1168054500
"173","에르마노키즈카페",NA,"음식","커피점/카페","커피전문점/카페/다방","명일1동","서울특별시 강동구 상암로 195",127.144176789332,37.546617181965,1174053000
"174","CAFEB",NA,"음식","커피점/카페","커피전문점/카페/다방","반포4동","서울특별시 서초구 신반포로 176",127.00239321346,37.5039300142165,1165058100
"175","여성건강카페화음",NA,"음식","커피점/카페","커피전문점/카페/다방","녹번동","서울특별시 은평구 은평로 195",126.928802899942,37.6024450164653,1138051000
"176","누아네",NA,"음식","커피점/카페","커피전문점/카페/다방","용산2가동","서울특별시 용산구 신흥로 103",126.984522673354,37.5448655355812,1117052000
"177","사주카페",NA,"음식","커피점/카페","사주카페","압구정동","서울특별시 강남구 도산대로51길 37",127.037989437328,37.5257153980974,1168054500
"178","커피오카",NA,"음식","커피점/카페","커피전문점/카페/다방","압구정동","서울특별시 강남구 압구정로50길 14",127.037854444289,37.5274172859935,1168054500
"179","착한커피",NA,"음식","커피점/카페","커피전문점/카페/다방","구로3동","서울특별시 구로구 디지털로33길 12",126.896142027835,37.4865407988684,1153054000
"180","아름다운사람들의공간",NA,"음식","커피점/카페","커피전문점/카페/다방","둔촌2동","서울특별시 강동구 양재대로98길 21",127.138780413442,37.5307283649091,1174070000
"181","삼무곡",NA,"음식","커피점/카페","커피전문점/카페/다방","혜화동","서울특별시 종로구 대학로11길 23",127.000400639028,37.5820519264019,1111065000
"182","연지다방",NA,"음식","커피점/카페","커피전문점/카페/다방","독산2동","서울특별시 금천구 독산로68길 8",126.902597322586,37.4657506614495,1154562000
"183","훈스커피랩",NA,"음식","커피점/카페","커피전문점/카페/다방","가산동","서울특별시 금천구 가산디지털1로 2",126.887987626062,37.4668214816265,1154551000
"184","동부",NA,"음식","커피점/카페","커피전문점/카페/다방","구의1동","서울특별시 광진구 아차산로 399",127.08702450167,37.5375840696398,1121585000
"185","삼거리커피숍",NA,"음식","커피점/카페","커피전문점/카페/다방","왕십리도선동","서울특별시 성동구 왕십리로 362-1",127.030452644161,37.5643177509017,1120053500
"186","커피바실리아",NA,"음식","커피점/카페","커피전문점/카페/다방","우이동","서울특별시 강북구 삼양로 541",127.012621077917,37.6511291192865,1130564500
"187","평범한카페",NA,"음식","커피점/카페","커피전문점/카페/다방","등촌1동","서울특별시 강서구 공항대로55길 33",126.861332691634,37.5546173265003,1150052000
"188","카페멜로우",NA,"음식","커피점/카페","커피전문점/카페/다방","가락본동","서울특별시 송파구 송이로17길 58-26",127.126543756351,37.5011468331575,1171062000
"189","카페이룸대치점","대치점","음식","커피점/카페","커피전문점/카페/다방","대치2동","서울특별시 강남구 도곡로 510",127.06216110792,37.4990133147849,1168061000
"190","xoxo",NA,"음식","커피점/카페","커피전문점/카페/다방","화양동","서울특별시 광진구 능동로 139",127.071870416413,37.5432957430476,1121571000
"191","lcm",NA,"음식","커피점/카페","커피전문점/카페/다방","다산동","서울특별시 중구 다산로 107",127.009607812556,37.5536565626869,1114062500
"192","JUSTGUINNESS",NA,"음식","커피점/카페","커피전문점/카페/다방","논현1동","서울특별시 강남구 도산대로16길 6",127.024407200618,37.517494517806,1168052100
"193","엔커피",NA,"음식","커피점/카페","커피전문점/카페/다방","가산동","서울특별시 금천구 디지털로9길 99",126.884793976844,37.481667685685,1154551000
"194","율리커피",NA,"음식","커피점/카페","커피전문점/카페/다방","양재1동","서울특별시 서초구 바우뫼로37길 44",127.038568202188,37.4805952678912,1165065100
"195","커피앤브레드",NA,"음식","커피점/카페","커피전문점/카페/다방","신사동","서울특별시 강남구 도산대로25길 38",127.026360971724,37.5220969937796,1168051000
"196","카페알롱제",NA,"음식","커피점/카페","커피전문점/카페/다방","광장동","서울특별시 광진구 아차산로78길 177",127.108246912721,37.5475136618811,1121581000
"197","킹커피",NA,"음식","커피점/카페","커피전문점/카페/다방","장충동","서울특별시 중구 동호로 241",127.006655756522,37.5586325633875,1114058000
"198","카페IN",NA,"음식","커피점/카페","커피전문점/카페/다방","명일1동","서울특별시 강동구 양재대로136길 58",127.146885717596,37.5482316529648,1174053000
"199","빌리엔젤강남",NA,"음식","커피점/카페","커피전문점/카페/다방","역삼1동","서울특별시 강남구 테헤란로1길 48",127.027070450886,37.5014326825511,1168064000
"200","카페스타",NA,"음식","커피점/카페","커피전문점/카페/다방","화양동","서울특별시 광진구 능동로 141",127.071970799993,37.5434136687038,1121571000
"201","베이직하우스","B가로수길점","음식","커피점/카페","커피전문점/카페/다방","신사동","서울특별시 강남구 도산대로 133",127.022987688136,37.5179152889488,1168051000
"202","커피빈","광장동대한제지점","음식","커피점/카페","커피전문점/카페/다방","광장동","서울특별시 광진구 아차산로 563",127.102911969818,37.544130344049,1121581000
"203","글로리아진스커피",NA,"음식","커피점/카페","커피전문점/카페/다방","양재1동","서울특별시 서초구 성촌길 67",127.021295161145,37.4655859834609,1165065100
"204","HIPPO커피",NA,"음식","커피점/카페","커피전문점/카페/다방","양재2동","서울특별시 서초구 논현로17길 19",127.04481343327,37.4758432762682,1165065200
"205","빽다방","어린이대공원역점","음식","커피점/카페","커피전문점/카페/다방","군자동","서울특별시 광진구 광나루로 381-1",127.072308882533,37.5480927803923,1121573000
"206","자올카페",NA,"음식","커피점/카페","커피전문점/카페/다방","구의3동","서울특별시 광진구 구의로 40",127.090033360763,37.5413917168552,1121587000
"207","킴스테이블",NA,"음식","커피점/카페","커피전문점/카페/다방","창5동","서울특별시 도봉구 해등로 128",127.040846213045,37.6549661202988,1132051500
"208","베네핏카페",NA,"음식","커피점/카페","커피전문점/카페/다방","신촌동","서울특별시 서대문구 신촌로 113",126.93855689045,37.5559675754759,1141058500
"209","고관한복촬영소",NA,"음식","커피점/카페","커피전문점/카페/다방","명동","서울특별시 중구 명동8나길 30",126.983324775738,37.5614074024617,1114055000
"210","미스터프랭크",NA,"음식","커피점/카페","커피전문점/카페/다방","성내1동","서울특별시 강동구 성내로6길 42",127.121806067697,37.5280804019641,1174064000
"211","폴바셋","올림픽공원북2문점","음식","커피점/카페","커피전문점/카페/다방","성내1동","서울특별시 강동구 강동대로 199",127.128684657215,37.5242117500215,1174064000
"212","빽다방외대역점","외대역점","음식","커피점/카페","커피전문점/카페/다방","이문1동","서울특별시 동대문구 휘경로 17",127.062159678677,37.5957770804947,1123074000
"213","TWOSME+",NA,"음식","커피점/카페","커피전문점/카페/다방","압구정동","서울특별시 강남구 도산대로 323",127.036996269202,37.5228870114434,1168054500
"214","24h스터디모임카페",NA,"음식","커피점/카페","커피전문점/카페/다방","청룡동","서울특별시 관악구 남부순환로218길 36",126.950093900042,37.4797881275825,1162059500
"215","메이드커피",NA,"음식","커피점/카페","커피전문점/카페/다방","목1동","서울특별시 양천구 목동서로 221",126.870747706739,37.527694664839,1147051000
"216","데미타스커피",NA,"음식","커피점/카페","커피전문점/카페/다방","목1동","서울특별시 양천구 목동동로 233-1",126.871554250266,37.5274771147,1147051000
"217","SELECTOCOFFEE",NA,"음식","커피점/카페","커피전문점/카페/다방","구로3동","서울특별시 구로구 디지털로26길 5",126.89346712375,37.4816050678561,1153054000
"218","로씨",NA,"음식","커피점/카페","커피전문점/카페/다방","장안1동","서울특별시 동대문구 한천로 42",127.061707550264,37.565939882897,1123065000
"219","붐커피",NA,"음식","커피점/카페","커피전문점/카페/다방","양재2동","서울특별시 서초구 마방로6길 28",127.04251285039,37.4745000979962,1165065200
"220","행복한타로사주",NA,"음식","커피점/카페","사주카페","신촌동","서울특별시 서대문구 이화여대5길 11",126.945054516058,37.5582964338005,1141058500
"221","또봄",NA,"음식","커피점/카페","커피전문점/카페/다방","명일2동","서울특별시 강동구 상암로67길 35",127.155614858808,37.5478979331773,1174054000
"222","MMTH",NA,"음식","커피점/카페","커피전문점/카페/다방","역삼1동","서울특별시 강남구 테헤란로4길 6",127.029459607276,37.4977219681228,1168064000
"223","투앤쓰리카페",NA,"음식","커피점/카페","커피전문점/카페/다방","구로3동","서울특별시 구로구 디지털로31길 38-21",126.893699961912,37.4865179558948,1153054000
"224","lamp",NA,"음식","커피점/카페","커피전문점/카페/다방","수서동","서울특별시 강남구 광평로 280",127.103094324391,37.4873110374136,1168075000
"225","할러스커피",NA,"음식","커피점/카페","커피전문점/카페/다방","종로1.2.3.4가동","서울특별시 종로구 종로 113",126.990116810892,37.5705752347175,1111061500
"226","예설",NA,"음식","커피점/카페","커피전문점/카페/다방","광장동","서울특별시 광진구 아차산로73길 25",127.103374031411,37.5461792442415,1121581000
"227","ceccoBeppe카페",NA,"음식","커피점/카페","커피전문점/카페/다방","서초3동","서울특별시 서초구 서초대로40길 49",127.008217489212,37.4894270367722,1165053000
"228","빽다방커피",NA,"음식","커피점/카페","커피전문점/카페/다방","서초1동","서울특별시 서초구 서초중앙로22길 25",127.015446867958,37.4934611599069,1165051000
"229","엠키친앤카페",NA,"음식","커피점/카페","커피전문점/카페/다방","전농1동","서울특별시 동대문구 왕산로 226",127.047629036851,37.5817035683923,1123056000
"230","데니스커피남강점","커피남강점","음식","커피점/카페","커피전문점/카페/다방","난곡동","서울특별시 관악구 난곡로 195",126.91900678481,37.4723354268093,1162077500
"231","모노치즈카폐",NA,"음식","커피점/카페","커피전문점/카페/다방","혜화동","서울특별시 종로구 성균관로 16",126.997653480121,37.584281231398,1111065000
"232","발리커피숍",NA,"음식","커피점/카페","커피전문점/카페/다방","명일1동","서울특별시 강동구 양재대로 1636",127.144278148975,37.5516097621384,1174053000
"233","인타임카페",NA,"음식","커피점/카페","커피전문점/카페/다방","가양1동","서울특별시 강서구 강서로 411",126.838931231146,37.5621570367543,1150060300
"234","쎄리오","한양대병원점","음식","커피점/카페","커피전문점/카페/다방","사근동","서울특별시 성동구 마조로 22-2",127.041324711886,37.5594688006573,1120055000
"235","카페앤",NA,"음식","커피점/카페","커피전문점/카페/다방","중계본동","서울특별시 노원구 중계로16길 37",127.082530285046,37.6511979773926,1135061900
"236","Riacoffee",NA,"음식","커피점/카페","커피전문점/카페/다방","논현1동","서울특별시 강남구 논현로149길 8",127.027614936595,37.5187464012756,1168052100
"237","POPBAR",NA,"음식","커피점/카페","생과일주스전문점","서초4동","서울특별시 서초구 서초대로77길 55",127.024450433189,37.5020057702087,1165053100
"238","원효로",NA,"음식","커피점/카페","커피전문점/카페/다방","자양3동","서울특별시 광진구 아차산로 262",127.072944230258,37.5369968145663,1121584000
"239","타요키즈카페","은평뉴타운점","음식","커피점/카페","커피전문점/카페/다방","진관동","서울특별시 은평구 진관2로 12",126.918523186011,37.6342747302578,1138069000
"240","espressamente",NA,"음식","커피점/카페","커피전문점/카페/다방","역삼1동","서울특별시 강남구 테헤란로26길 12",127.035838530052,37.4994411566051,1168064000
"241","꽃샘커피",NA,"음식","커피점/카페","커피전문점/카페/다방","독산4동","서울특별시 금천구 독산로 272",126.903199275423,37.4709733317814,1154564000
"242","에이원커피",NA,"음식","커피점/카페","커피전문점/카페/다방","서초3동","서울특별시 서초구 서초대로 255",127.00974547034,37.4927467259471,1165053000
"243","북카페로뎀",NA,"음식","커피점/카페","커피전문점/카페/다방","길동","서울특별시 강동구 천호대로173길 49",127.135908470295,37.5374292710927,1174068500
"244","프리지어",NA,"음식","커피점/카페","커피전문점/카페/다방","서초3동","서울특별시 서초구 반포대로9길 3",127.01148825582,37.483210132868,1165053000
"245","지구촌카페",NA,"음식","커피점/카페","커피전문점/카페/다방","가리봉동","서울특별시 구로구 남부순환로 1307",126.895984700731,37.4787903190188,1153059500
"246","도기푸",NA,"음식","커피점/카페","애견카페","논현1동","서울특별시 강남구 논현로115길 71",127.027184808409,37.5083086673895,1168052100
"247","mr.black",NA,"음식","커피점/카페","커피전문점/카페/다방","화양동","서울특별시 광진구 능동로17길 1",127.073105130099,37.5459365112471,1121571000
"248","카페BONBON",NA,"음식","커피점/카페","커피전문점/카페/다방","서교동","서울특별시 마포구 동교로18길 31",126.917680550372,37.5540390411692,1144066000
"249","클렌치",NA,"음식","커피점/카페","커피전문점/카페/다방","자양1동","서울특별시 광진구 뚝섬로 655",127.082300361001,37.5315824780908,1121582000
"250","에르보리앙",NA,"음식","커피점/카페","전통찻집/인삼찻집","신사동","서울특별시 강남구 압구정로 164",127.02762714313,37.5265225762919,1168051000
"251","95도CCoffee&버블티",NA,"음식","커피점/카페","커피전문점/카페/다방","가산동","서울특별시 금천구 가산디지털1로 128",126.88368419181,37.4772240529873,1154551000
"252","CafeThe9",NA,"음식","커피점/카페","커피전문점/카페/다방","녹번동","서울특별시 은평구 통일로 623",126.934827783954,37.6024454870637,1138051000
"253","뉴욕핫도그앤커피","잠실점","음식","커피점/카페","커피전문점/카페/다방","잠실본동","서울특별시 송파구 올림픽로12길 35-1",127.083648460299,37.508318677577,1171065000
"254","히어로",NA,"음식","커피점/카페","보드게임카페","화양동","서울특별시 광진구 아차산로 221",127.068198206976,37.5410322150577,1121571000
"255","BILLYANGEL",NA,"음식","커피점/카페","커피전문점/카페/다방","신촌동","서울특별시 서대문구 신촌로 149",126.942482942316,37.5568587947185,1141058500
"256","쥬시",NA,"음식","커피점/카페","생과일주스전문점","서초1동","서울특별시 서초구 서초대로54길 37",127.016487532405,37.4925777837099,1165051000
"257","카페드림",NA,"음식","커피점/카페","커피전문점/카페/다방","신정2동","서울특별시 양천구 목동동로12길 20",126.873266979154,37.5226729064929,1147063000
"258","마체베트어린이대공원점꿈","마루점","음식","커피점/카페","커피전문점/카페/다방","능동","서울특별시 광진구 능동로 216",127.078756685122,37.5519997599751,1121578000
"259","엔젤리너스미아삼거리",NA,"음식","커피점/카페","커피전문점/카페/다방","송중동","서울특별시 강북구 도봉로10나길 4",127.030936958979,37.6134104869383,1130554500
"260","커피스테이션",NA,"음식","커피점/카페","커피전문점/카페/다방","구로2동","서울특별시 구로구 경인로53길 15",126.876099480454,37.5020209898045,1153053000
"261","카페끌림",NA,"음식","커피점/카페","커피전문점/카페/다방","안암동","서울특별시 성북구 인촌로13길 57",127.022253356692,37.5888756378035,1129060000
"262","케이에이치아이",NA,"음식","커피점/카페","커피전문점/카페/다방","종로1.2.3.4가동","서울특별시 종로구 돈화문로 85",126.990268988647,37.5760728884043,1111061500
"263","카페나루",NA,"음식","커피점/카페","커피전문점/카페/다방","광장동","서울특별시 광진구 광장로1길 18",127.102236608526,37.5476032759626,1121581000
"264","보나비아티제","삼성생명본관점","음식","커피점/카페","커피전문점/카페/다방","소공동","서울특별시 중구 세종대로 55",126.974957339549,37.5616143732941,1114052000
"265","오설록",NA,"음식","커피점/카페","커피전문점/카페/다방","전농1동","서울특별시 동대문구 왕산로 205",127.045021605777,37.5801957798395,1123056000
"266","카페엘리",NA,"음식","커피점/카페","커피전문점/카페/다방","서초2동","서울특별시 서초구 강남대로39길 15-7",127.032407284871,37.4857620979576,1165052000
"267","커피빈코리아서초우성아파트앞점","코리아서초우성아파트앞점","음식","커피점/카페","커피전문점/카페/다방","서초2동","서울특별시 서초구 사임당로 171",127.028336934523,37.4927208908577,1165052000
"268","아이크스커피더퍼스트",NA,"음식","커피점/카페","커피전문점/카페/다방","양평1동","서울특별시 영등포구 선유로 146",126.89181499412,37.5268400186163,1156061000
"269","엔제리너스",NA,"음식","커피점/카페","커피전문점/카페/다방","행당2동","서울특별시 성동구 행당로 82",127.027512774894,37.5562382207618,1120057000
"270","엔제리너스","도심공항터미널점","음식","커피점/카페","커피전문점/카페/다방","삼성1동","서울특별시 강남구 테헤란로87길 22",127.059426824816,37.5096240415368,1168058000
"271","쉐프스카페테리아",NA,"음식","커피점/카페","커피전문점/카페/다방","구의3동","서울특별시 광진구 아차산로62길 14-2",127.093501865033,37.5390396135381,1121587000
"272","커피와문화",NA,"음식","커피점/카페","커피전문점/카페/다방","대치4동","서울특별시 강남구 삼성로75길 7",127.057672198276,37.503437823109,1168063000
"273","티모시스커피코리아",NA,"음식","커피점/카페","커피전문점/카페/다방","대치4동","서울특별시 강남구 선릉로90길 16",127.050617469159,37.5041111898749,1168063000
"274","라일락",NA,"음식","커피점/카페","커피전문점/카페/다방","수서동","서울특별시 강남구 광평로51길 6-23",127.104139723908,37.488778689177,1168075000
"275","쿠벅커피","강남롯데점","음식","커피점/카페","커피전문점/카페/다방","대치4동","서울특별시 강남구 도곡로 405",127.054649873493,37.4973585734254,1168063000
"276","블루펄호텔커피숍",NA,"음식","커피점/카페","커피전문점/카페/다방","청담동","서울특별시 강남구 도산대로 549",127.053931111028,37.5256369352082,1168056500
"277","허바허바",NA,"음식","커피점/카페","커피전문점/카페/다방","역삼1동","서울특별시 강남구 테헤란로7길 12",127.030968160323,37.5000050117406,1168064000
"278","파스쿠찌","타임스퀘어점","음식","커피점/카페","커피전문점/카페/다방","영등포동","서울특별시 영등포구 영중로 15",126.903914224263,37.5172126661057,1156053500
"279","커피빈코리아강남구청앞점","코리아강남구청앞점","음식","커피점/카페","커피전문점/카페/다방","청담동","서울특별시 강남구 학동로 423",127.046612697097,37.5184147126149,1168056500
"280","데일리","브라운여의도점","음식","커피점/카페","커피전문점/카페/다방","여의동","서울특별시 영등포구 여의나루로4길 23",126.928581968317,37.5214396559377,1156054000
"281","두평반",NA,"음식","커피점/카페","커피전문점/카페/다방","역삼1동","서울특별시 강남구 봉은사로24길 73",127.03228548603,37.5022143849511,1168064000
"282","이디야커피","금호역점","음식","커피점/카페","커피전문점/카페/다방","금호2.3가동","서울특별시 성동구 장터길 17-1",127.017791215024,37.5484267689606,1120061500
"283","카페더스노우","스타수퍼점","음식","커피점/카페","커피전문점/카페/다방","도곡2동","서울특별시 강남구 언주로30길 57",127.054163435442,37.4892992237675,1168065600
"284","베이커스보이",NA,"음식","커피점/카페","커피전문점/카페/다방","반포3동","서울특별시 서초구 잠원로 69",127.006957982903,37.5102488124166,1165058000
"285","성유엔터프라이즈","미아점","음식","커피점/카페","커피전문점/카페/다방","길음2동","서울특별시 성북구 동소문로 315",127.028725560472,37.6083915431599,1129068500
"286","투썸플레이스","예금보험공사점","음식","커피점/카페","커피전문점/카페/다방","명동","서울특별시 중구 청계천로 30",126.980783354365,37.5684947101793,1114055000
"287","주스팩토리",NA,"음식","커피점/카페","생과일주스전문점","회현동","서울특별시 중구 한강대로 405",126.969506078632,37.5547189980799,1114054000
"288","스무디킹","강남한승빌딩점","음식","커피점/카페","생과일주스전문점","서초4동","서울특별시 서초구 강남대로 423",127.02579578825,37.500304869454,1165053100
"289","커피의향기",NA,"음식","커피점/카페","커피전문점/카페/다방","대치1동","서울특별시 강남구 남부순환로 2927",127.060384792992,37.4936559272092,1168060000
"290","커피빈","코리아공항터미널2호점","음식","커피점/카페","커피전문점/카페/다방","삼성1동","서울특별시 강남구 테헤란로87길 22",127.059426824816,37.5096240415368,1168058000
"291","테라코타커피",NA,"음식","커피점/카페","커피전문점/카페/다방","압구정동","서울특별시 강남구 도산대로37길 13",127.031148620406,37.5219201129806,1168054500
"292","꽃동산까페",NA,"음식","커피점/카페","커피전문점/카페/다방","상계2동","서울특별시 노원구 노원로 420",127.067897152441,37.6541467810239,1135064000
"293","카페잠실다방",NA,"음식","커피점/카페","커피전문점/카페/다방","잠실6동","서울특별시 송파구 올림픽로35가길 10",127.102211392581,37.5166698635047,1171071000
"294","카페하랑",NA,"음식","커피점/카페","커피전문점/카페/다방","명동","서울특별시 중구 명동길 80",126.987181161048,37.5641616972841,1114055000
"295","탐앤탐스천호로데오점","천호로데오점","음식","커피점/카페","커피전문점/카페/다방","천호2동","서울특별시 강동구 천호대로157길 15",127.126763402259,37.5385964470918,1174061000
"296","착한카페",NA,"음식","커피점/카페","커피전문점/카페/다방","역삼2동","서울특별시 강남구 논현로 322",127.040430454326,37.4941172614047,1168065000
"297","커피빈","코리아명동증권빌딩점","음식","커피점/카페","커피전문점/카페/다방","명동","서울특별시 중구 명동7길 13",126.983952741813,37.5643411963027,1114055000
"298","간단하지만특별한화피디Cafe","카그뮤지컬예당점","음식","커피점/카페","커피전문점/카페/다방","서초3동","서울특별시 서초구 남부순환로 2395",127.012347140463,37.4806673259512,1165053000
"299","커피마마","아차산우리집점","음식","커피점/카페","커피전문점/카페/다방","중곡2동","서울특별시 광진구 용마산로 47",127.08760448289,37.5577721125171,1121575000
"300","대지다방",NA,"음식","커피점/카페","커피전문점/카페/다방","대조동","서울특별시 은평구 통일로 755",126.927900823391,37.6124292658256,1138057000
"301","커피빈","코리아대치은마점","음식","커피점/카페","커피전문점/카페/다방","대치2동","서울특별시 강남구 영동대로 211",127.068806483655,37.497561118626,1168061000
"302","커피빈","코리아삼성생명강남사옥점","음식","커피점/카페","커피전문점/카페/다방","서초2동","서울특별시 서초구 서초대로74길 4",127.025683828146,37.4967357683727,1165052000
"303","이디아",NA,"음식","커피점/카페","커피전문점/카페/다방","상암동","서울특별시 마포구 월드컵북로 375",126.890828379752,37.5773969503192,1144074000
"304","월드컵공원연못카페테리아",NA,"음식","커피점/카페","커피전문점/카페/다방","성산2동","서울특별시 마포구 월드컵로 243-48",126.897885976697,37.5632627471369,1144073000
"305","커피빈","코리아대치한티점","음식","커피점/카페","커피전문점/카페/다방","대치4동","서울특별시 강남구 선릉로64길 23",127.05415180864,37.498291685952,1168063000
"306","CAFFEILLYNO",NA,"음식","커피점/카페","커피전문점/카페/다방","삼성2동","서울특별시 강남구 봉은사로 474",127.052006131015,37.5123579883076,1168059000
"307","옐로우트리커피구로디지탈단지점",NA,"음식","커피점/카페","커피전문점/카페/다방","구로3동","서울특별시 구로구 시흥대로 543",126.900078115749,37.4818379994748,1153054000
"308","카페블랑",NA,"음식","커피점/카페","커피전문점/카페/다방","명일1동","서울특별시 강동구 양재대로134길 20",127.144697821694,37.5475670654065,1174053000
"309","스타벅스","삼성역점","음식","커피점/카페","커피전문점/카페/다방","삼성1동","서울특별시 강남구 테헤란로103길 9",127.063878213052,37.5100378471739,1168058000
"310","투썸플레이스광화문",NA,"음식","커피점/카페","커피전문점/카페/다방","사직동","서울특별시 종로구 새문안로 85",126.974101239646,37.5703920891956,1111053000
"311","빈스코리아",NA,"음식","커피점/카페","커피전문점/카페/다방","중곡4동","서울특별시 광진구 긴고랑로 120",127.088316604573,37.5587777792531,1121577000
"312","커피에비뉴",NA,"음식","커피점/카페","커피전문점/카페/다방","평창동","서울특별시 종로구 평창문화로 75",126.96899104341,37.6068576084862,1111056000
"313","카페베네","마인츠돔강남역점","음식","커피점/카페","커피전문점/카페/다방","서초4동","서울특별시 서초구 강남대로 415",127.026325802308,37.4995523532443,1165053100
"314","커피빈","코리아테헤란로비젼타워점","음식","커피점/카페","커피전문점/카페/다방","역삼2동","서울특별시 강남구 테헤란로 312",127.045033948395,37.5029308525436,1168065000
"315","엔제리너스","수유역점","음식","커피점/카페","커피전문점/카페/다방","수유3동","서울특별시 강북구 도봉로 333",127.025033565345,37.6378610281617,1130563500
"316","힐링카페지유",NA,"음식","커피점/카페","커피전문점/카페/다방","자양1동","서울특별시 광진구 자양로13길 57",127.081626889094,37.5339109716964,1121582000
"317","카페톡",NA,"음식","커피점/카페","커피전문점/카페/다방","창4동","서울특별시 도봉구 마들로 551",127.048019361107,37.6594573086209,1132051400
"318","까페에스피",NA,"음식","커피점/카페","커피전문점/카페/다방","정릉4동","서울특별시 성북구 서경로 124",127.013546778579,37.615401855105,1129065000
"319","탐앤탐스화랑대점","화랑대점","음식","커피점/카페","커피전문점/카페/다방","공릉2동","서울특별시 노원구 노원로 3",127.086639052799,37.6219821545308,1135060000
"320","토프레스",NA,"음식","커피점/카페","커피전문점/카페/다방","응암1동","서울특별시 은평구 은평로9길 3",126.92115120661,37.6006002828144,1138058000
"321","향기",NA,"음식","커피점/카페","커피전문점/카페/다방","다산동","서울특별시 중구 다산로 47",127.00713747962,37.5487701679127,1114062500
"322","서울숲공원",NA,"음식","커피점/카페","커피전문점/카페/다방","성수1가1동","서울특별시 성동구 강변북로 257",127.041655428296,37.5389456006182,1120065000
"323","스타벅스커피여의도IFC1F",NA,"음식","커피점/카페","커피전문점/카페/다방","여의동","서울특별시 영등포구 국제금융로 10",126.924863083917,37.5251722235016,1156054000
"324","스무디킹","마리오아울렛점","음식","커피점/카페","커피전문점/카페/다방","가산동","서울특별시 금천구 벚꽃로 266",126.885068137309,37.47843551394,1154551000
"325","카페위드",NA,"음식","커피점/카페","커피전문점/카페/다방","갈현2동","서울특별시 은평구 연서로21길 31",126.914378647007,37.6154322117972,1138055200
"326","제이스티하우스",NA,"음식","커피점/카페","커피전문점/카페/다방","성북동","서울특별시 성북구 성북로 52-2",127.00268347055,37.5925503326013,1129052500
"327","오드리까페",NA,"음식","커피점/카페","커피전문점/카페/다방","잠실본동","서울특별시 송파구 석촌호수로12길 22",127.083991467608,37.5089430676534,1171065000
"328","아모제푸드잠실야구장점1루카페아모제,레드스푼",NA,"음식","커피점/카페","커피전문점/카페/다방","잠실2동","서울특별시 송파구 올림픽로 25",127.075927917189,37.5161878271983,1171067000
"329","카페바움",NA,"음식","커피점/카페","커피전문점/카페/다방","잠실6동","서울특별시 송파구 올림픽로35길 104",127.099289046588,37.5198103241711,1171071000
"330","이디야커피","창신점","음식","커피점/카페","커피전문점/카페/다방","창신1동","서울특별시 종로구 종로 316-1",127.012907975586,37.5720204539642,1111067000
"331","리버파크커피숍",NA,"음식","커피점/카페","커피전문점/카페/다방","염창동","서울특별시 강서구 공항대로 653-30",126.878162722394,37.5485342625222,1150051000
"332","서울강서지역자활센터-카페",NA,"음식","커피점/카페","커피전문점/카페/다방","화곡2동","서울특별시 강서구 곰달래로 180",126.852936655214,37.5308748663564,1150055000
"333","카페라",NA,"음식","커피점/카페","커피전문점/카페/다방","서초3동","서울특별시 서초구 반포대로 38",127.011908976671,37.483889444384,1165053000
"334","보나비아티제","선릉대치타워점","음식","커피점/카페","커피전문점/카페/다방","대치4동","서울특별시 강남구 테헤란로 424",127.053450292224,37.5054855075187,1168063000
"335","목련다방",NA,"음식","커피점/카페","커피전문점/카페/다방","삼청동","서울특별시 종로구 북촌로5길 52",126.982125600962,37.579661173563,1111054000
"336","롯데칠성음료커피청량리점칸타타",NA,"음식","커피점/카페","커피전문점/카페/다방","전농1동","서울특별시 동대문구 왕산로 200",127.045021605777,37.5801957798395,1123056000
"337","커피빈코리아신림점","코리아신림점","음식","커피점/카페","커피전문점/카페/다방","서원동","서울특별시 관악구 신림로 318",126.930369254436,37.4826026900191,1162064500
"338","아랑",NA,"음식","커피점/카페","커피전문점/카페/다방","장충동","서울특별시 중구 동호로 233",127.007659074084,37.5580823528368,1114058000
"339","커피빈","코리아신촌대로점","음식","커피점/카페","커피전문점/카페/다방","신촌동","서울특별시 서대문구 신촌로 113",126.93855689045,37.5559675754759,1141058500
"340","까망PC",NA,"음식","커피점/카페","커피전문점/카페/다방","청구동","서울특별시 중구 다산로28길 22",127.014759846202,37.5594843787667,1114064500
"341","금란",NA,"음식","커피점/카페","커피전문점/카페/다방","염창동","서울특별시 강서구 양천로 678",126.871403359141,37.551001756939,1150051000
"342","히코코",NA,"음식","커피점/카페","커피전문점/카페/다방","소공동","서울특별시 중구 을지로 30",126.981717713672,37.5647183982011,1114052000
"343","카페나인",NA,"음식","커피점/카페","커피전문점/카페/다방","면목4동","서울특별시 중랑구 동일로 467",127.079833074975,37.5721466015504,1126054000
"344","투썸플레이스","구의점","음식","커피점/카페","커피전문점/카페/다방","구의3동","서울특별시 광진구 광나루로 604",127.094896994635,37.5415732644257,1121587000
"345","카페드림","메디힐병원점","음식","커피점/카페","커피전문점/카페/다방","신월5동","서울특별시 양천구 남부순환로 331",126.827821479527,37.5372508450536,1147060000
"346","도피오후레쉬",NA,"음식","커피점/카페","커피전문점/카페/다방","전농1동","서울특별시 동대문구 왕산로 205",127.045021605777,37.5801957798395,1123056000
"347","coffeeplus+",NA,"음식","커피점/카페","커피전문점/카페/다방","신월5동","서울특별시 양천구 화곡로 41",126.826484310849,37.539544210164,1147060000
"348","제이제이카페",NA,"음식","커피점/카페","커피전문점/카페/다방","구의1동","서울특별시 광진구 자양로18길 31",127.085165225553,37.5378760385797,1121585000
"349","카페아이스빈",NA,"음식","커피점/카페","커피전문점/카페/다방","잠실3동","서울특별시 송파구 올림픽로 240",127.098124400184,37.5113044663838,1171068000
"350","서초다방",NA,"음식","커피점/카페","커피전문점/카페/다방","서초3동","서울특별시 서초구 법원로 15",127.009986984002,37.4941543953505,1165053000
"351","애플트리",NA,"음식","커피점/카페","커피전문점/카페/다방","길음2동","서울특별시 성북구 동소문로 315",127.028725560472,37.6083915431599,1129068500
"352","북카페산책연남점","연남점","음식","커피점/카페","커피전문점/카페/다방","연남동","서울특별시 마포구 성미산로17길 79",126.917159374771,37.5650269249638,1144071000
"353","영등포",NA,"음식","커피점/카페","커피전문점/카페/다방","영등포동","서울특별시 영등포구 영등포로51길 13-1",126.909986268246,37.519719699418,1156053500
"354","커피빈","코리아서초우성점","음식","커피점/카페","커피전문점/카페/다방","서초2동","서울특별시 서초구 강남대로51길 1",127.030244120753,37.4912768507143,1165052000
"355","도화타워까페",NA,"음식","커피점/카페","커피전문점/카페/다방","대치2동","서울특별시 강남구 삼성로 438",127.057502738149,37.5061216187055,1168061000
"356","피티카페",NA,"음식","커피점/카페","커피전문점/카페/다방","역삼1동","서울특별시 강남구 역삼로7길 22",127.032879555995,37.4956145139892,1168064000
"357","커피빈","코리아목동점","음식","커피점/카페","커피전문점/카페/다방","목1동","서울특별시 양천구 목동동로 293",126.875752563272,37.5281659049786,1147051000
"358","비비앤줄리",NA,"음식","커피점/카페","생과일주스전문점","구의3동","서울특별시 광진구 광나루로56길 29",127.098416365212,37.5387438473645,1121587000
"359","카페루이스",NA,"음식","커피점/카페","커피전문점/카페/다방","논현2동","서울특별시 강남구 언주로 605",127.037237776954,37.5093731832252,1168053100
"360","경복궁버들마루",NA,"음식","커피점/카페","전통찻집/인삼찻집","청운효자동","서울특별시 종로구 사직로 161",126.976822047547,37.5758940278313,1111051500
"361","NPS카페테리아Cate36.5℃",NA,"음식","커피점/카페","커피전문점/카페/다방","잠실6동","서울특별시 송파구 올림픽로35다길 13",127.100684432971,37.5157121367662,1171071000
"362","신세계푸드넥슨아이타워",NA,"음식","커피점/카페","커피전문점/카페/다방","역삼2동","서울특별시 강남구 테헤란로 326",127.047016751663,37.5035415622531,1168065000
"363","이디야커피",NA,"음식","커피점/카페","커피전문점/카페/다방","대치2동","서울특별시 강남구 테헤란로104길 8",127.064789913491,37.5085853583327,1168061000
"364","가비카페",NA,"음식","커피점/카페","커피전문점/카페/다방","난곡동","서울특별시 관악구 난곡로 211",126.918005170504,37.4735877301079,1162077500
"365","스페이스PC까페",NA,"음식","커피점/카페","커피전문점/카페/다방","장충동","서울특별시 중구 퇴계로50길 67",127.000925685256,37.5597015087993,1114058000
"366","브레쉬에비뉴","신천역점","음식","커피점/카페","커피전문점/카페/다방","잠실2동","서울특별시 송파구 올림픽로 145",127.087019799804,37.5119760446614,1171067000
"367","커피빈코리아신사점","코리아신사점","음식","커피점/카페","커피전문점/카페/다방","논현1동","서울특별시 강남구 도산대로 126",127.02238935035,37.5169552228844,1168052100
"368","엔제리너스","GS이수역DI점","음식","커피점/카페","커피전문점/카페/다방","사당2동","서울특별시 동작구 동작대로 135",126.981959121144,37.4886900795021,1159063000
"369","약속",NA,"음식","커피점/카페","커피전문점/카페/다방","신월5동","서울특별시 양천구 화곡로 96",126.832416574577,37.5393507279411,1147060000
"370","카페도라토","을지프라자점","음식","커피점/카페","커피전문점/카페/다방","명동","서울특별시 중구 남대문로10길 6",126.983227937665,37.5668668840396,1114055000
"371","라이코스스테이션TIC","신천점","음식","커피점/카페","커피전문점/카페/다방","잠실본동","서울특별시 송파구 올림픽로 82",127.079674377156,37.5114054379016,1171065000
"372","카페7그램","강남점","음식","커피점/카페","커피전문점/카페/다방","역삼1동","서울특별시 강남구 봉은사로2길 24",127.02587282081,37.5030807526152,1168064000
"373","이디야IBK고객센터",NA,"음식","커피점/카페","커피전문점/카페/다방","한남동","서울특별시 용산구 한남대로 72",127.007036466984,37.5350553803212,1117068500
"374","폴바셋","압구정점","음식","커피점/카페","커피전문점/카페/다방","신사동","서울특별시 강남구 압구정로 152",127.026033203671,37.5255543279368,1168051000
"375","이디야커피","외대점","음식","커피점/카페","커피전문점/카페/다방","이문1동","서울특별시 동대문구 휘경로 12",127.061252936653,37.595841955415,1123074000
"376","더카페","델리강남역점","음식","커피점/카페","커피전문점/카페/다방","서초4동","서울특별시 서초구 서초대로77길 24",127.025980584874,37.500009045257,1165053100
"377","폴바셋","코리아나호텔점","음식","커피점/카페","커피전문점/카페/다방","명동","서울특별시 중구 세종대로 135",126.976230860644,37.5678065687546,1114055000
"378","보나비아티제","중앙일보점","음식","커피점/카페","커피전문점/카페/다방","소공동","서울특별시 중구 서소문로 88",126.970974081755,37.5615436804287,1114052000
"379","투썸플레이스종로구청점","종로구청점","음식","커피점/카페","커피전문점/카페/다방","종로1.2.3.4가동","서울특별시 종로구 종로5길 58",126.980315823657,37.5728967632044,1111061500
"380","자바씨티코리아","강남구청역점","음식","커피점/카페","커피전문점/카페/다방","논현2동","서울특별시 강남구 선릉로 653",127.041850134646,37.5148800856533,1168053100
"381","새싹까페",NA,"음식","커피점/카페","커피전문점/카페/다방","상계1동","서울특별시 노원구 동일로245길 162",127.054197225628,37.6808163947489,1135063000
"382","카페드투칸",NA,"음식","커피점/카페","커피전문점/카페/다방","압구정동","서울특별시 강남구 논현로164길 14",127.029443572298,37.5234198803915,1168054500
"383","보나비아티제","동부이촌점","음식","커피점/카페","커피전문점/카페/다방","이촌1동","서울특별시 용산구 이촌로 224",126.971927350487,37.5201579867796,1117063000
"384","알뮤트1917",NA,"음식","커피점/카페","커피전문점/카페/다방","천호2동","서울특별시 강동구 천호대로 1005",127.124418139224,37.5388493978687,1174061000
"385","할리스커피남부터미널",NA,"음식","커피점/카페","커피전문점/카페/다방","서초1동","서울특별시 서초구 서초중앙로 52",127.015738833106,37.4867236974339,1165051000
"386","스타벅스","신림포도몰점","음식","커피점/카페","커피전문점/카페/다방","서원동","서울특별시 관악구 신림로 330",126.930215862294,37.4838447505118,1162064500
"387","카페아미",NA,"음식","커피점/카페","커피전문점/카페/다방","신월5동","서울특별시 양천구 화곡로 103",126.833323850616,37.5399453677714,1147060000
"388","커피트리",NA,"음식","커피점/카페","커피전문점/카페/다방","시흥1동","서울특별시 금천구 시흥대로63길 29",126.897995688901,37.4550213695752,1154567000
"389","카페아르코",NA,"음식","커피점/카페","커피전문점/카페/다방","문래동","서울특별시 영등포구 경인로 775",126.897525378821,37.5147384071488,1156060500
"390","커피빈","코리아신촌점","음식","커피점/카페","커피전문점/카페/다방","신촌동","서울특별시 서대문구 연세로 8-1",126.937284068375,37.5563345623891,1141058500
"391","모노레일에스프레소잠실삼성생명점",NA,"음식","커피점/카페","커피전문점/카페/다방","잠실6동","서울특별시 송파구 올림픽로 295",127.103216592365,37.5149114270102,1171071000
"392","지에스그래픽스북카페마루",NA,"음식","커피점/카페","커피전문점/카페/다방","부암동","서울특별시 종로구 세검정로 227-3",126.957563000646,37.6003959110257,1111055000
"393","커피앤드",NA,"음식","커피점/카페","커피전문점/카페/다방","가양1동","서울특별시 강서구 양천로 351",126.841846169171,37.568348721195,1150060300
"394","이디야커피",NA,"음식","커피점/카페","커피전문점/카페/다방","부암동","서울특별시 종로구 홍지문2길 6",126.95630560715,37.6012317706309,1111055000
"395","커피빈","코리아강남에스점","음식","커피점/카페","커피전문점/카페/다방","서초4동","서울특별시 서초구 강남대로 423",127.02579578825,37.500304869454,1165053100
"396","투썸플레이스대학로씨지브이",NA,"음식","커피점/카페","커피전문점/카페/다방","혜화동","서울특별시 종로구 대명길 28",126.999827123014,37.583452691573,1111065000
"397","커피빈","코리아고대안암역점","음식","커피점/카페","커피전문점/카페/다방","안암동","서울특별시 성북구 개운사길 8",127.029558656269,37.5869806658445,1129060000
"398","아이스마일카페",NA,"음식","커피점/카페","커피전문점/카페/다방","방이2동","서울특별시 송파구 가락로39길 42",127.114876668735,37.5132062739813,1171056200
"399","엠카페",NA,"음식","커피점/카페","커피전문점/카페/다방","신촌동","서울특별시 서대문구 이화여대길 52",126.950301476769,37.5642810556138,1141058500
"400","탐앤탐스","코엑스스카이점","음식","커피점/카페","커피전문점/카페/다방","삼성1동","서울특별시 강남구 봉은사로 524",127.057100286394,37.5129393969289,1168058000
"401","신세계푸드성신여대까페에델리아",NA,"음식","커피점/카페","커피전문점/카페/다방","미아동","서울특별시 강북구 도봉로76가길 55",127.027719998978,37.6325580827799,1130553500
"402","미스터브리즈커피","구일점","음식","커피점/카페","커피전문점/카페/다방","구로1동","서울특별시 구로구 구일로4길 29",126.875857937169,37.4917287696568,1153052000
"403","인도풍좌식카페",NA,"음식","커피점/카페","커피전문점/카페/다방","천호2동","서울특별시 강동구 천호대로157길 11",127.12678834275,37.5383983992687,1174061000
"404","간단하지만특별한화피디Cafe","드마린논현점","음식","커피점/카페","커피전문점/카페/다방","논현2동","서울특별시 강남구 논현로 636",127.032970761607,37.5104646438294,1168053100
"405","타미하우스",NA,"음식","커피점/카페","커피전문점/카페/다방","가산동","서울특별시 금천구 벚꽃로 234",126.886122059407,37.4759855946297,1154551000
"406","원스메이",NA,"음식","커피점/카페","커피전문점/카페/다방","회기동","서울특별시 동대문구 회기로 176",127.055357718271,37.5901003280239,1123071000
"407","송파나루빈스토리",NA,"음식","커피점/카페","커피전문점/카페/다방","송파1동","서울특별시 송파구 송파대로42길 28",127.110584341247,37.5060196223865,1171058000
"408","커피빈","코리아테헤란로하이닉스뒷점","음식","커피점/카페","커피전문점/카페/다방","대치4동","서울특별시 강남구 테헤란로70길 12",127.053143077013,37.504735168954,1168063000
"409","카페속작은가게",NA,"음식","커피점/카페","커피전문점/카페/다방","진관동","서울특별시 은평구 진관1로 55",126.927796801754,37.6315031143934,1138069000
"410","라콜롬보코리아",NA,"음식","커피점/카페","커피전문점/카페/다방","청담동","서울특별시 강남구 압구정로 408",127.041375413506,37.5272296661429,1168056500
"411","엔제리너스","롯데월드면세점","음식","커피점/카페","커피전문점/카페/다방","잠실6동","서울특별시 송파구 올림픽로 300",127.10428390105,37.5136310129521,1171071000
"412","카페4M",NA,"음식","커피점/카페","커피전문점/카페/다방","삼청동","서울특별시 종로구 북촌로5길 19-4",126.983840958784,37.5792344431203,1111054000
"413","엔뉴까페",NA,"음식","커피점/카페","커피전문점/카페/다방","화양동","서울특별시 광진구 능동로 120",127.074695272526,37.5390559369817,1121571000
"414","커피마마","우물골우리집점","음식","커피점/카페","커피전문점/카페/다방","진관동","서울특별시 은평구 진관2로 111-7",126.931750997444,37.637026242681,1138069000
"415","카페톡톡",NA,"음식","커피점/카페","커피전문점/카페/다방","월곡1동","서울특별시 성북구 동소문로 312",127.029189792781,37.6075303657194,1129071500
"416","솔고바이오메디칼",NA,"음식","커피점/카페","커피전문점/카페/다방","역삼1동","서울특별시 강남구 언주로 538",127.041189580982,37.5063867943591,1168064000
"417","반스커피",NA,"음식","커피점/카페","커피전문점/카페/다방","역삼2동","서울특별시 강남구 테헤란로 156",127.036602597823,37.5007088680698,1168065000
"418","모노레일커피","당산삼성생명직","음식","커피점/카페","커피전문점/카페/다방","당산2동","서울특별시 영등포구 국회대로 559",126.896793377897,37.5283463160587,1156056000
"419","커피나무카페",NA,"음식","커피점/카페","커피전문점/카페/다방","시흥2동","서울특별시 금천구 금하로 764",126.914497539145,37.4495515257961,1154568000
"420","탐앤탐스","종로본점","음식","커피점/카페","커피전문점/카페/다방","종로1.2.3.4가동","서울특별시 종로구 종로14길 4",126.986697073609,37.5698160870318,1111061500
"421","스타벅스신림사거리점","신림사거리점","음식","커피점/카페","커피전문점/카페/다방","신림동","서울특별시 관악구 남부순환로 1619",126.930487328505,37.4846311218944,1162069500
"422","파스쿠찌한강자이타워점","한강자이타워점","음식","커피점/카페","커피전문점/카페/다방","가양1동","서울특별시 강서구 양천로55길 55",126.848101050873,37.5664636928306,1150060300
"423","라떼야",NA,"음식","커피점/카페","커피전문점/카페/다방","반포4동","서울특별시 서초구 신반포로 194",127.00681633008,37.5064271601893,1165058100
"424","씨앗카페느티",NA,"음식","커피점/카페","커피전문점/카페/다방","화양동","서울특별시 광진구 능동로17길 39",127.071322233862,37.5464361015901,1121571000
"425","카페드림고려대학교점","고려대학교점","음식","커피점/카페","커피전문점/카페/다방","안암동","서울특별시 성북구 안암로 145",127.031701809695,37.5884849860916,1129060000
"426","365차버블티",NA,"음식","커피점/카페","커피전문점/카페/다방","목1동","서울특별시 양천구 목동동로 309",126.875986963287,37.5291322482037,1147051000
"427","공간여유",NA,"음식","커피점/카페","커피전문점/카페/다방","역삼1동","서울특별시 강남구 역삼로 153",127.035963134149,37.4950269997286,1168064000
"428","탐앤탐스서울대입구점","서울대입구점","음식","커피점/카페","커피전문점/카페/다방","청룡동","서울특별시 관악구 관악로 173",126.952240711369,37.4806992270742,1162059500
"429","한스카페",NA,"음식","커피점/카페","커피전문점/카페/다방","목1동","서울특별시 양천구 오목로 287",126.869398648692,37.5256273881539,1147051000
"430","엠앤디",NA,"음식","커피점/카페","커피전문점/카페/다방","내곡동","서울특별시 서초구 능안말1길 5-2",127.066820417377,37.4553847981195,1165066000
"431","압구정커피볶는집",NA,"음식","커피점/카페","커피전문점/카페/다방","서초4동","서울특별시 서초구 서초대로 397",127.024498668666,37.4974288106161,1165053100
"432","발음북카페",NA,"음식","커피점/카페","커피전문점/카페/다방","발산1동","서울특별시 강서구 강서로47다길 35",126.834289636698,37.5513169363809,1150061100
"433","플러피마운틴",NA,"음식","커피점/카페","커피전문점/카페/다방","도곡2동","서울특별시 강남구 남부순환로378길 28",127.046501224181,37.4844890552515,1168065600
"434","GE4ECOFFEE",NA,"음식","커피점/카페","커피전문점/카페/다방","송정동","서울특별시 성동구 광나루로11길 13",127.065990376892,37.5492954290224,1120072000
"435","스타벅스",NA,"음식","커피점/카페","커피전문점/카페/다방","천호2동","서울특별시 강동구 천호대로157길 19",127.127021430163,37.5387875765447,1174061000
"436","싸가지삼촌",NA,"음식","커피점/카페","커피전문점/카페/다방","장안2동","서울특별시 동대문구 답십리로72길 92",127.072444373329,37.5682052638021,1123066000
"437","커피베이",NA,"음식","커피점/카페","커피전문점/카페/다방","행당2동","서울특별시 성동구 행당로 82",127.027512774894,37.5562382207618,1120057000
"438","빈스빈스","압구정갤러리아점","음식","커피점/카페","커피전문점/카페/다방","압구정동","서울특별시 강남구 선릉로161길 8",127.039667107725,37.5272247978323,1168054500
"439","모뜨",NA,"음식","커피점/카페","커피전문점/카페/다방","평창동","서울특별시 종로구 평창30길 24",126.975084474793,37.6117942952303,1111056000
"440","커피앤드",NA,"음식","커피점/카페","커피전문점/카페/다방","대치4동","서울특별시 강남구 선릉로 418",127.050313015787,37.5022525672448,1168063000
"441","글로리아진스커피","강남1호점","음식","커피점/카페","커피전문점/카페/다방","역삼1동","서울특별시 강남구 논현로 515",127.035674395387,37.502530436523,1168064000
"442","체리카페",NA,"음식","커피점/카페","커피전문점/카페/다방","목1동","서울특별시 양천구 오목로 332-1",126.874225605281,37.5243760032888,1147051000
"443","롯데칠성음료","커피강남점","음식","커피점/카페","커피전문점/카페/다방","대치4동","서울특별시 강남구 도곡로 401",127.053252565617,37.496959928714,1168063000
"444","아자부",NA,"음식","커피점/카페","커피전문점/카페/다방","도곡2동","서울특별시 강남구 언주로30길 57",127.054163435442,37.4892992237675,1168065600
"445","쉬어가는페이지",NA,"음식","커피점/카페","커피전문점/카페/다방","성수2가3동","서울특별시 성동구 아차산로 153",127.060993965636,37.5434260054552,1120069000
"446","나드리커피숍",NA,"음식","커피점/카페","커피전문점/카페/다방","제기동","서울특별시 동대문구 고산자로 458",127.038677707867,37.5804866829161,1123054500
"447","오르페오",NA,"음식","커피점/카페","커피전문점/카페/다방","서초3동","서울특별시 서초구 효령로 230",127.009382169497,37.4834357780284,1165053000
"448","떼일로사업본부",NA,"음식","커피점/카페","커피전문점/카페/다방","서초4동","서울특별시 서초구 서초대로77길 3",127.026492343657,37.498048964004,1165053100
"449","압구정볶는커피","석촌호수점","음식","커피점/카페","커피전문점/카페/다방","송파1동","서울특별시 송파구 석촌호수로 258",127.104633946073,37.5089481634979,1171058000
"450","하야로비커피숍",NA,"음식","커피점/카페","커피전문점/카페/다방","홍제2동","서울특별시 서대문구 통일로 392",126.948607658438,37.5849267857793,1141065500
"451","버블퐁","잠실역점","음식","커피점/카페","커피전문점/카페/다방","잠실3동","서울특별시 송파구 송파대로 567",127.093034822493,37.5131306848918,1171068000
"452","엔제리너스","교대점","음식","커피점/카페","커피전문점/카페/다방","서초3동","서울특별시 서초구 서초중앙로 119",127.013617161356,37.4924277047095,1165053000
"453","마노핀","G-카페이대점","음식","커피점/카페","커피전문점/카페/다방","신촌동","서울특별시 서대문구 이화여대8길 10",126.946317312969,37.5586410955581,1141058500
"454","빈스앤베리즈","강남역점","음식","커피점/카페","커피전문점/카페/다방","역삼1동","서울특별시 강남구 테헤란로4길 14",127.029600899833,37.4972906222739,1168064000
"455","커피하우스",NA,"음식","커피점/카페","커피전문점/카페/다방","진관동","서울특별시 은평구 진관3로 70",126.92296051102,37.6423975308124,1138069000
"456","엔제리너스",NA,"음식","커피점/카페","커피전문점/카페/다방","한강로동","서울특별시 용산구 청파로 74",126.959600845599,37.5328899510721,1117062500
"457","코오롱찻집",NA,"음식","커피점/카페","커피전문점/카페/다방","천호3동","서울특별시 강동구 진황도로 12",127.128352036254,37.5391848595769,1174062000
"458","임포스타",NA,"음식","커피점/카페","커피전문점/카페/다방","대치4동","서울특별시 강남구 도곡로 401",127.053252565617,37.496959928714,1168063000
"459","카페센티모르","교대점","음식","커피점/카페","커피전문점/카페/다방","서초1동","서울특별시 서초구 서초중앙로 108",127.014376695249,37.4914248622106,1165051000
"460","커피인칼라세븐",NA,"음식","커피점/카페","커피전문점/카페/다방","도곡2동","서울특별시 강남구 언주로30길 21",127.051986567424,37.4888582783868,1168065600
"461","간단하지만특별한화피디Cafe","루이스신사점","음식","커피점/카페","커피전문점/카페/다방","논현1동","서울특별시 강남구 논현로149길 62",127.023565567641,37.5169739632156,1168052100
"462","블랙앤브라운","을지로점","음식","커피점/카페","커피전문점/카페/다방","명동","서울특별시 중구 을지로 76",126.986220773812,37.5657032469319,1114055000
"463","acafe",NA,"음식","커피점/카페","커피전문점/카페/다방","대치2동","서울특별시 강남구 남부순환로 3104",127.072155267102,37.495632171538,1168061000
"464","소망글로벌베네","강남역점","음식","커피점/카페","커피전문점/카페/다방","서초4동","서울특별시 서초구 강남대로 415",127.026325802308,37.4995523532443,1165053100
"465","플라밍고",NA,"음식","커피점/카페","커피전문점/카페/다방","역삼1동","서울특별시 강남구 강남대로102길 38-6",127.028416490751,37.5031647755249,1168064000
"466","보보스",NA,"음식","커피점/카페","커피전문점/카페/다방","삼성2동","서울특별시 강남구 선릉로130길 5",127.042052738874,37.5167288887625,1168059000
"467","털리스커피","뱅뱅사거리","음식","커피점/카페","커피전문점/카페/다방","역삼1동","서울특별시 강남구 강남대로 308",127.031801329315,37.4906588834388,1168064000
"468","이디야서대문점2호",NA,"음식","커피점/카페","커피전문점/카페/다방","천연동","서울특별시 서대문구 통일로 141",126.965217701593,37.5669176328747,1141052000
"469","벨코와플",NA,"음식","커피점/카페","커피전문점/카페/다방","대치2동","서울특별시 강남구 영동대로 219",127.068310383352,37.4983501380328,1168061000
"470","보나비아티제일원로비점",NA,"음식","커피점/카페","커피전문점/카페/다방","일원본동","서울특별시 강남구 일원로 81",127.089578831632,37.4903343408695,1168072000
"471","씨루씨1",NA,"음식","커피점/카페","커피전문점/카페/다방","신촌동","서울특별시 서대문구 이화여대길 42",126.945838701439,37.5588710935605,1141058500
"472","아트큐브",NA,"음식","커피점/카페","커피전문점/카페/다방","도곡2동","서울특별시 강남구 언주로 118",127.051841563354,37.4869108286536,1168065600
"473","지에스엘앤씨","대치점","음식","커피점/카페","커피전문점/카페/다방","대치4동","서울특별시 강남구 삼성로 315",127.059921394471,37.4999506331062,1168063000
"474","투썸플레이스","강남대륭타워점","음식","커피점/카페","커피전문점/카페/다방","역삼1동","서울특별시 강남구 강남대로 362",127.029400510793,37.495297643201,1168064000
"475","카페스튜디오",NA,"음식","커피점/카페","커피전문점/카페/다방","창2동","서울특별시 도봉구 덕릉로59아길 17",127.037988660043,37.6419139075448,1132051200
"476","본까스미니스텐드",NA,"음식","커피점/카페","커피전문점/카페/다방","전농1동","서울특별시 동대문구 왕산로 205",127.045021605777,37.5801957798395,1123056000
"477","다희연가",NA,"음식","커피점/카페","커피전문점/카페/다방","역삼1동","서울특별시 강남구 논현로 528",127.035897513916,37.5036495659446,1168064000
"478","밀로커피",NA,"음식","커피점/카페","커피전문점/카페/다방","서교동","서울특별시 마포구 양화로18안길 36",126.926612266336,37.5570489574659,1144066000
"479","카페라온",NA,"음식","커피점/카페","커피전문점/카페/다방","중곡2동","서울특별시 광진구 능동로 378",127.082878265843,37.562916530082,1121575000
"480","오렌지까페",NA,"음식","커피점/카페","커피전문점/카페/다방","구의2동","서울특별시 광진구 천호대로137길 10",127.093128536881,37.5493087477151,1121586000
"481","비8-2커피",NA,"음식","커피점/카페","커피전문점/카페/다방","삼성2동","서울특별시 강남구 선릉로 660",127.042235644949,37.5156941605938,1168059000
"482","강남고양이",NA,"음식","커피점/카페","커피전문점/카페/다방","논현1동","서울특별시 강남구 논현로 613",127.03291681603,37.5085089153323,1168052100
"483","그루",NA,"음식","커피점/카페","커피전문점/카페/다방","삼성1동","서울특별시 강남구 영동대로 513",127.057100286394,37.5129393969289,1168058000
"484","베아뚜스카페",NA,"음식","커피점/카페","커피전문점/카페/다방","성수2가3동","서울특별시 성동구 성수일로10길 33",127.053938691401,37.5465323756577,1120069000
"485","헤어라떼",NA,"음식","커피점/카페","커피전문점/카페/다방","성현동","서울특별시 관악구 관악로 285",126.95561287172,37.4894332451542,1162056500
"486","작은커피숍",NA,"음식","커피점/카페","커피전문점/카페/다방","구로1동","서울특별시 구로구 구일로8길 92",126.876299581694,37.4977249159262,1153052000
"487","빈스빈스커피이대점","커피이대점","음식","커피점/카페","커피전문점/카페/다방","신촌동","서울특별시 서대문구 이화여대7길 8",126.945273487923,37.5588209935149,1141058500
"488","커피더캠프",NA,"음식","커피점/카페","커피전문점/카페/다방","가양1동","서울특별시 강서구 양천로55길 55",126.848101050873,37.5664636928306,1150060300
"489","북카페옹기종기",NA,"음식","커피점/카페","커피전문점/카페/다방","성수2가1동","서울특별시 성동구 뚝섬로 385-19",127.05400451994,37.5395317424777,1120067000
"490","이디아",NA,"음식","커피점/카페","커피전문점/카페/다방","화곡1동","서울특별시 강서구 가로공원로76길 61",126.838252633841,37.5344165569881,1150054000
"491","요거프레소","상봉이노시티점","음식","커피점/카페","커피전문점/카페/다방","상봉1동","서울특별시 중랑구 망우로 353",127.091605360196,37.5983230687909,1126058000
"492","까페마또",NA,"음식","커피점/카페","커피전문점/카페/다방","서초3동","서울특별시 서초구 서초중앙로 125",127.013406047413,37.4930026170105,1165053000
"493","제니스카페",NA,"음식","커피점/카페","커피전문점/카페/다방","고척1동","서울특별시 구로구 안양천로539길 11",126.870234534472,37.5047042103971,1153072000
"494","아이디어팩토리",NA,"음식","커피점/카페","커피전문점/카페/다방","역삼1동","서울특별시 강남구 테헤란로4길 14",127.029600899833,37.4972906222739,1168064000
"495","키즈팡팡",NA,"음식","커피점/카페","커피전문점/카페/다방","발산1동","서울특별시 강서구 수명로 68-27",126.826663385017,37.5526650246794,1150061100
"496","폴바셋여의도","롯데캐슬점","음식","커피점/카페","커피전문점/카페/다방","여의동","서울특별시 영등포구 의사당대로 127",126.926163737378,37.5204625862643,1156054000
"497","까페스토리웨이",NA,"음식","커피점/카페","커피전문점/카페/다방","영등포본동","서울특별시 영등포구 경인로 846",126.907647192475,37.51566141404,1156051500
"498","알베로",NA,"음식","커피점/카페","커피전문점/카페/다방","정릉4동","서울특별시 성북구 보국문로 157",127.003701363031,37.6164184052506,1129065000
"499","커피나무K",NA,"음식","커피점/카페","커피전문점/카페/다방","은천동","서울특별시 관악구 봉천로 387",126.942688881589,37.4837497922457,1162060500
"500","참스카페",NA,"음식","커피점/카페","커피전문점/카페/다방","양재1동","서울특별시 서초구 바우뫼로35길 22",127.039022846529,37.4795267068173,1165065100
"501","행복한이야기",NA,"음식","커피점/카페","커피전문점/카페/다방","공릉2동","서울특별시 노원구 공릉로34길 23",127.080317151557,37.6229692468634,1135060000
"502","예전에살던집",NA,"음식","커피점/카페","전통찻집/인삼찻집","능동","서울특별시 광진구 능동로36길 53",127.081962714214,37.5554307017899,1121578000
"503","카페네스",NA,"음식","커피점/카페","커피전문점/카페/다방","논현2동","서울특별시 강남구 학동로 343",127.040595826648,37.5174288954469,1168053100
"504","카페서드에비뉴",NA,"음식","커피점/카페","커피전문점/카페/다방","이태원1동","서울특별시 용산구 녹사평대로 170",126.989067144777,37.5334792633282,1117065000
"505","퍼블리카.PUBLICA",NA,"음식","커피점/카페","커피전문점/카페/다방","구로1동","서울특별시 구로구 구일로8길 20",126.87288851458,37.4944306399493,1153052000
"506","소프트리",NA,"음식","커피점/카페","커피전문점/카페/다방","명동","서울특별시 중구 명동길 60",126.985737720211,37.5637618569889,1114055000
"507","탐앤탐스","반포스타점","음식","커피점/카페","커피전문점/카페/다방","반포4동","서울특별시 서초구 고무래로 26",127.01122482443,37.5023373221467,1165058100
"508","할리스","에프엔비종로코리안리빌딩점","음식","커피점/카페","커피전문점/카페/다방","종로1.2.3.4가동","서울특별시 종로구 종로5길 68",126.980444775983,37.5734024597516,1111061500
"509","버블퐁",NA,"음식","커피점/카페","커피전문점/카페/다방","구로2동","서울특별시 구로구 경인로 482",126.872717618816,37.4982764661074,1153053000
"510","카페오리",NA,"음식","커피점/카페","커피전문점/카페/다방","약수동","서울특별시 중구 다산로 94",127.009067146682,37.552606813291,1114063500
"511","오설록티하우스",NA,"음식","커피점/카페","커피전문점/카페/다방","삼청동","서울특별시 종로구 삼청로 30",126.980068007172,37.5786162276638,1111054000
"512","커피빈코리아이태원점","코리아이태원점","음식","커피점/카페","커피전문점/카페/다방","이태원1동","서울특별시 용산구 이태원로 189",126.994898468403,37.5348445682058,1117065000
"513","파스쿠찌","연세세브란스1호점","음식","커피점/카페","커피전문점/카페/다방","신촌동","서울특별시 서대문구 연세로 50",126.942916817516,37.5638006863037,1141058500
"514","폴바셋현대모터스튜디오서울점서울점","서울점","음식","커피점/카페","커피전문점/카페/다방","논현2동","서울특별시 강남구 언주로 738",127.034347226953,37.5212705196924,1168053100
"515","코레일유통공차코리아",NA,"음식","커피점/카페","커피전문점/카페/다방","노량진1동","서울특별시 동작구 노량진로 151",126.948345320611,37.5157965336133,1159051000
"516","투썸플레이스","호텔오쿠우드점","음식","커피점/카페","커피전문점/카페/다방","삼성1동","서울특별시 강남구 영동대로 513",127.058188259504,37.5109747661734,1168058000
"517","커피볶는김여사","본점","음식","커피점/카페","커피전문점/카페/다방","홍은1동","서울특별시 서대문구 세검정로1길 85",126.945680497603,37.5941813427882,1141066000
"518","카페S프레소",NA,"음식","커피점/카페","커피전문점/카페/다방","성수2가1동","서울특별시 성동구 성덕정길 81",127.05272342219,37.5379356231487,1120067000
"519","엘가커피",NA,"음식","커피점/카페","커피전문점/카페/다방","갈현1동","서울특별시 은평구 연서로29길 14-17",126.919447920765,37.6197045689217,1138055100
"520","설빙강남역점","강남역점","음식","커피점/카페","커피전문점/카페/다방","역삼1동","서울특별시 강남구 강남대로102길 14",127.026985327978,37.5018915192681,1168064000
"521","리믹스앤더쥬스",NA,"음식","커피점/카페","커피전문점/카페/다방","논현2동","서울특별시 강남구 선릉로 653",127.041850134646,37.5148800856533,1168053100
"522","카페오아시아떡찌니",NA,"음식","커피점/카페","커피전문점/카페/다방","청담동","서울특별시 강남구 선릉로 838",127.040567835582,37.5266824771445,1168056500
"523","카마노커피",NA,"음식","커피점/카페","커피전문점/카페/다방","대치4동","서울특별시 강남구 도곡로 401",127.053252565617,37.496959928714,1168063000
"524","달콤커피","대치점","음식","커피점/카페","커피전문점/카페/다방","대치2동","서울특별시 강남구 역삼로 555",127.063353023441,37.5049967795197,1168061000
"525","폴바셋","선릉역점","음식","커피점/카페","커피전문점/카페/다방","삼성2동","서울특별시 강남구 테헤란로 411",127.05084893094,37.5054826547048,1168059000
"526","카페라노떼",NA,"음식","커피점/카페","커피전문점/카페/다방","북가좌1동","서울특별시 서대문구 응암로 28",126.909696956788,37.576104053197,1141071000
"527","카페숨",NA,"음식","커피점/카페","커피전문점/카페/다방","상도1동","서울특별시 동작구 상도로 329",126.951691081169,37.4989946951539,1159053000
"528","스타벅스커피홍대역",NA,"음식","커피점/카페","커피전문점/카페/다방","서교동","서울특별시 마포구 양화로 165",126.923599454067,37.5572017356505,1144066000
"529","카페머물다",NA,"음식","커피점/카페","커피전문점/카페/다방","가양1동","서울특별시 강서구 양천로55길 55",126.848101050873,37.5664636928306,1150060300
"530","요거프레소","성수2호점","음식","커피점/카페","커피전문점/카페/다방","성수2가3동","서울특별시 성동구 아차산로7길 28",127.055363251361,37.547534935536,1120069000
"531","장마리의커피공방",NA,"음식","커피점/카페","커피전문점/카페/다방","구의1동","서울특별시 광진구 자양로26길 15",127.084845342322,37.541829181778,1121585000
"532","해리카페",NA,"음식","커피점/카페","커피전문점/카페/다방","반포1동","서울특별시 서초구 강남대로 521",127.022068516962,37.5085998093477,1165056000
"533","아이스빌",NA,"음식","커피점/카페","커피전문점/카페/다방","상계1동","서울특별시 노원구 누원로 20-1",127.05289815328,37.6866896896433,1135063000
"534","비쥬블랑쉐",NA,"음식","커피점/카페","커피전문점/카페/다방","중곡4동","서울특별시 광진구 용마산로 44",127.088230776121,37.557461583069,1121577000
"535","신라스테이서대문까페",NA,"음식","커피점/카페","커피전문점/카페/다방","충현동","서울특별시 서대문구 충정로 76",126.966769809109,37.5651832084066,1141056500
"536","앤티앤스프레즐",NA,"음식","커피점/카페","커피전문점/카페/다방","삼성1동","서울특별시 강남구 영동대로 513",127.059139102428,37.5118203253706,1168058000
"537","드롭탑",NA,"음식","커피점/카페","커피전문점/카페/다방","삼성1동","서울특별시 강남구 영동대로 513",127.057100286394,37.5129393969289,1168058000
"538","폴바셋","광나루역점","음식","커피점/카페","커피전문점/카페/다방","광장동","서울특별시 광진구 천호대로 808",127.102719694954,37.5450659785248,1121581000
"539","다향전통찻집",NA,"음식","커피점/카페","커피전문점/카페/다방","연희동","서울특별시 서대문구 연희맛로 34",126.930862009167,37.5677558139479,1141061500
"540","씨즈캔디",NA,"음식","커피점/카페","커피전문점/카페/다방","반포4동","서울특별시 서초구 사평대로 205",127.007826111215,37.5044803619627,1165058100
"541","칼딘커피","여의도점","음식","커피점/카페","커피전문점/카페/다방","여의동","서울특별시 영등포구 여의공원로 68",126.922271587285,37.5267975120735,1156054000
"542","카페위로",NA,"음식","커피점/카페","커피전문점/카페/다방","휘경2동","서울특별시 동대문구 망우로18길 28",127.062724059916,37.5886993619317,1123073000
"543","더진스커피",NA,"음식","커피점/카페","커피전문점/카페/다방","도봉2동","서울특별시 도봉구 마들로 859-19",127.046750039767,37.6860364639208,1132052200
"544","큐비틀주스",NA,"음식","커피점/카페","커피전문점/카페/다방","일원2동","서울특별시 강남구 개포로 621",127.078788852454,37.494179317544,1168074000
"545","팔롬비니카페테리아",NA,"음식","커피점/카페","커피전문점/카페/다방","성수2가3동","서울특별시 성동구 아차산로15길 19",127.06205252685,37.5447409419661,1120069000
"546","한양대그라찌에",NA,"음식","커피점/카페","커피전문점/카페/다방","사근동","서울특별시 성동구 왕십리로 222",127.046594659704,37.554492639039,1120055000
"547","제프리카벤디쉬카페",NA,"음식","커피점/카페","커피전문점/카페/다방","회기동","서울특별시 동대문구 회기로 111",127.048793155975,37.5916514635079,1123071000
"548","로렐",NA,"음식","커피점/카페","커피전문점/카페/다방","정릉4동","서울특별시 성북구 서경로 124",127.013546778579,37.615401855105,1129065000
"549","로팸",NA,"음식","커피점/카페","커피전문점/카페/다방","우이동","서울특별시 강북구 419로 61-1",127.00774828844,37.6460064163715,1130564500
"550","차타임",NA,"음식","커피점/카페","커피전문점/카페/다방","잠실2동","서울특별시 송파구 올림픽로 145",127.087019799804,37.5119760446614,1171067000
"551","코레일유통바날",NA,"음식","커피점/카페","커피전문점/카페/다방","노량진1동","서울특별시 동작구 노량진로 151",126.948345320611,37.5157965336133,1159051000
"552","파스쿠찌","방배점","음식","커피점/카페","커피전문점/카페/다방","방배2동","서울특별시 서초구 동작대로 90",126.982456411805,37.4845405063757,1165061000
"553","샤론",NA,"음식","커피점/카페","커피전문점/카페/다방","방화1동","서울특별시 강서구 초원로 68",126.813029414844,37.5674317705807,1150063000
"554","카페:인",NA,"음식","커피점/카페","커피전문점/카페/다방","잠실6동","서울특별시 송파구 올림픽로35가길 11",127.103980668319,37.5162868334434,1171071000
"555","카페두다트보라매점","보라매점","음식","커피점/카페","커피전문점/카페/다방","신대방2동","서울특별시 동작구 여의대방로16길 14",126.916580347259,37.4963171487277,1159068000
"556","토프레소","동서울터미널점","음식","커피점/카페","커피전문점/카페/다방","구의3동","서울특별시 광진구 강변역로4길 34",127.092225955269,37.5341461007625,1121587000
"557","카페통인",NA,"음식","커피점/카페","커피전문점/카페/다방","청운효자동","서울특별시 종로구 자하문로9길 16",126.970227927221,37.5795669902353,1111051500
"558","신세계푸드건국대까페에델리아",NA,"음식","커피점/카페","커피전문점/카페/다방","화양동","서울특별시 광진구 능동로 120",127.074695272526,37.5390559369817,1121571000
"559","할리스에프앤비",NA,"음식","커피점/카페","커피전문점/카페/다방","원효로1동","서울특별시 용산구 원효로90길 11",126.96970339144,37.5403851155867,1117056000
"560","더블유카페","역삼신웅점","음식","커피점/카페","커피전문점/카페/다방","역삼2동","서울특별시 강남구 테헤란로 216",127.040133281343,37.5014314226478,1168065000
"561","서울만남의광장휴게소할리스매장",NA,"음식","커피점/카페","커피전문점/카페/다방","양재2동","서울특별시 서초구 양재대로12길 73-71",127.042713505005,37.4596522409903,1165065200
"562","더브라운네스카페",NA,"음식","커피점/카페","커피전문점/카페/다방","대치1동","서울특별시 강남구 삼성로 155",127.06290321902,37.4939282273061,1168060000
"563","쓰리팝",NA,"음식","커피점/카페","커피전문점/카페/다방","서교동","서울특별시 마포구 양화로 140",126.922022343062,37.5551149572483,1144066000
"564","폴바셋","서대문역점","음식","커피점/카페","커피전문점/카페/다방","소공동","서울특별시 중구 서소문로9길 41-10",126.968970575166,37.5640130747781,1114052000
"565","폴바셋코엑스몰점","코엑스몰점","음식","커피점/카페","커피전문점/카페/다방","삼성1동","서울특별시 강남구 영동대로 513",127.059139102428,37.5118203253706,1168058000
"566","탐앤탐스일원점","일원점","음식","커피점/카페","커피전문점/카페/다방","일원1동","서울특별시 강남구 개포로140길 30",127.086529556331,37.4937258207554,1168073000
"567","청소년휴카페",NA,"음식","커피점/카페","커피전문점/카페/다방","정릉3동","서울특별시 성북구 보국문로 7-8",127.011008960092,37.6051808710632,1129064000
"568","삼청",NA,"음식","커피점/카페","커피전문점/카페/다방","삼청동","서울특별시 종로구 삼청로 67",126.981022795803,37.5816609770738,1111054000
"569","영우국민대학교",NA,"음식","커피점/카페","커피전문점/카페/다방","정릉3동","서울특별시 성북구 정릉로 77",126.998517838776,37.610184409786,1129064000
"570","테디베어주",NA,"음식","커피점/카페","커피전문점/카페/다방","잠실6동","서울특별시 송파구 올림픽로 300",127.10428390105,37.5136310129521,1171071000
"571","김군COFFEE",NA,"음식","커피점/카페","커피전문점/카페/다방","성수2가3동","서울특별시 성동구 아차산로7길 3",127.054119693914,37.5456417864104,1120069000
"572","소운빔","개포동역점","음식","커피점/카페","커피전문점/카페/다방","개포2동","서울특별시 강남구 개포로82길 7",127.067321504548,37.4887460609749,1168067000
"573","오설록티하우스",NA,"음식","커피점/카페","커피전문점/카페/다방","잠실6동","서울특별시 송파구 올림픽로 300",127.10428390105,37.5136310129521,1171071000
"574","NJPark",NA,"음식","커피점/카페","커피전문점/카페/다방","방배4동","서울특별시 서초구 방배로27길 43",126.989870412601,37.4890012725274,1165062100
"575","씨타델커피",NA,"음식","커피점/카페","커피전문점/카페/다방","중앙동","서울특별시 관악구 남부순환로 1773",126.947357616661,37.4822146416218,1162061500
"576","디노월드전쟁기념관점",NA,"음식","커피점/카페","커피전문점/카페/다방","남영동","서울특별시 용산구 이태원로 29",126.978446851542,37.5373254412298,1117053000
"577","스미스바니스페셜티커피",NA,"음식","커피점/카페","커피전문점/카페/다방","여의동","서울특별시 영등포구 국제금융로 86",126.931778543643,37.5201981385118,1156054000
"578","빌리엔젤","신라스테이점","음식","커피점/카페","커피전문점/카페/다방","역삼1동","서울특별시 강남구 언주로 517",127.041092966782,37.505097501494,1168064000
"579","커피빈","코리아시청역7번출구점","음식","커피점/카페","커피전문점/카페/다방","소공동","서울특별시 중구 세종대로 84",126.977159295318,37.5636518048491,1114052000
"580","할리스커피신림고시촌점","신림고시촌점","음식","커피점/카페","커피전문점/카페/다방","삼성동","서울특별시 관악구 호암로 605",126.93360436833,37.4713687920605,1162074500
"581","로직커피로스터스",NA,"음식","커피점/카페","커피전문점/카페/다방","방화2동","서울특별시 강서구 개화동로27길 55",126.809619940841,37.5647303961165,1150064000
"582","동자희망나눔센터",NA,"음식","커피점/카페","커피전문점/카페/다방","남영동","서울특별시 용산구 후암로57길 35-15",126.974396884906,37.552130537681,1117053000
"583","타임커피",NA,"음식","커피점/카페","커피전문점/카페/다방","청구동","서울특별시 중구 다산로 140",127.011645399456,37.5561965643187,1114064500
"584","셀렉토커피","선정릉역점","음식","커피점/카페","커피전문점/카페/다방","삼성2동","서울특별시 강남구 선릉로 574",127.044348098926,37.5097102508565,1168059000
"585","더착한커피&쿠키",NA,"음식","커피점/카페","커피전문점/카페/다방","성내1동","서울특별시 강동구 성내로 28",127.123420155025,37.52937189412,1174064000
"586","할리스커피강남역점","강남역점","음식","커피점/카페","커피전문점/카페/다방","역삼1동","서울특별시 강남구 강남대로 402",127.02781746866,37.498771710373,1168064000
"587","커피블루",NA,"음식","커피점/카페","커피전문점/카페/다방","중앙동","서울특별시 관악구 양녕로6길 39",126.949135945127,37.484411017544,1162061500
"588","오멘사",NA,"음식","커피점/카페","커피전문점/카페/다방","여의동","서울특별시 영등포구 의사당대로 127",126.926163737378,37.5204625862643,1156054000
"589","위카페",NA,"음식","커피점/카페","커피전문점/카페/다방","문정2동","서울특별시 송파구 위례광장로 163",127.139310734355,37.4796240251334,1171064200
"590","마운틴에프엔드비",NA,"음식","커피점/카페","커피전문점/카페/다방","영등포동","서울특별시 영등포구 영중로 9",126.9055549085,37.517182828822,1156053500
"591","동서울호텔 커피숍",NA,"음식","커피점/카페","커피전문점/카페/다방","구의3동","서울특별시 광진구 구의강변로 38",127.091875120386,37.534152413939,1121587000
"592","그린",NA,"음식","커피점/카페","커피전문점/카페/다방","청담동","서울특별시 강남구 도산대로78길 15",127.046974488764,37.522877845509,1168056500
"593","카페트렌디",NA,"음식","커피점/카페","커피전문점/카페/다방","오류2동","서울특별시 구로구 천왕로 106",126.838538716764,37.4860335821924,1153078000
"594","지니어스커피",NA,"음식","커피점/카페","커피전문점/카페/다방","일원2동","서울특별시 강남구 개포로 623",127.079635157872,37.4943300833667,1168074000
"595","이디야커피","북창동점","음식","커피점/카페","커피전문점/카페/다방","소공동","서울특별시 중구 남대문로1길 57-1",126.977555664865,37.5636372174317,1114052000
"596","paulbassett",NA,"음식","커피점/카페","커피전문점/카페/다방","한남동","서울특별시 용산구 한남대로 48",127.008156795201,37.5333347823459,1117068500
"597","카페쥬스또",NA,"음식","커피점/카페","커피전문점/카페/다방","면목3.8동","서울특별시 중랑구 면목로44길 79",127.092972051691,37.5808893320318,1126057500
"598","폴바셋롯데본점","2호점","음식","커피점/카페","커피전문점/카페/다방","소공동","서울특별시 중구 을지로 30",126.980984894727,37.5653337940277,1114052000
"599","투썸플레이스등촌로점","등촌로점","음식","커피점/카페","커피전문점/카페/다방","등촌2동","서울특별시 강서구 등촌로 177",126.862214320016,37.5457596420848,1150053000
"600","회화나무로스터스",NA,"음식","커피점/카페","커피전문점/카페/다방","양재1동","서울특별시 서초구 성촌1길 12",127.022130773762,37.4656559755804,1165065100
"601","카페르메이에르",NA,"음식","커피점/카페","커피전문점/카페/다방","문정2동","서울특별시 송파구 위례광장로 163",127.139310734355,37.4796240251334,1171064200
"602","brewercoffee",NA,"음식","커피점/카페","커피전문점/카페/다방","대치1동","서울특별시 강남구 남부순환로391길 15",127.056795915957,37.4930776827645,1168060000
"603","그리다꿈스튜디오",NA,"음식","커피점/카페","커피전문점/카페/다방","방이2동","서울특별시 송파구 올림픽로32길 29",127.109896888871,37.5134301592053,1171056200
"604","카페비엔에스",NA,"음식","커피점/카페","커피전문점/카페/다방","성수1가2동","서울특별시 성동구 상원길 19",127.048752676696,37.5458779972031,1120066000
"605","가회동177",NA,"음식","커피점/카페","커피전문점/카페/다방","가회동","서울특별시 종로구 북촌로8길 1",126.985276441909,37.58107590275,1111060000
"606","안암다방",NA,"음식","커피점/카페","커피전문점/카페/다방","제기동","서울특별시 동대문구 약령시로 3",127.030099839292,37.5827952669628,1123054500
"607","서울만남의광장휴게소TOMNTOMS",NA,"음식","커피점/카페","커피전문점/카페/다방","양재2동","서울특별시 서초구 양재대로12길 73-71",127.042713505005,37.4596522409903,1165065200
"608","아리스타커피",NA,"음식","커피점/카페","커피전문점/카페/다방","성내1동","서울특별시 강동구 성내로6길 20",127.122326901135,37.5290123623274,1174064000
"609","달테이블","이대점","음식","커피점/카페","커피전문점/카페/다방","신촌동","서울특별시 서대문구 이화여대8길 3",126.946053850812,37.5588640039904,1141058500
"610","로뎀나무아래서",NA,"음식","커피점/카페","커피전문점/카페/다방","압구정동","서울특별시 강남구 압구정로 332",127.037821288203,37.5282369726779,1168054500
"611","코스모스커피볶는집",NA,"음식","커피점/카페","커피전문점/카페/다방","대치2동","서울특별시 강남구 삼성로 212",127.065897098053,37.4996105819766,1168061000
"612","위키드스노우",NA,"음식","커피점/카페","커피전문점/카페/다방","압구정동","서울특별시 강남구 논현로 816",127.028509514112,37.5212947294568,1168054500
"613","카페베네미아사거리역점","미아사거리역점","음식","커피점/카페","커피전문점/카페/다방","송천동","서울특별시 강북구 도봉로 67",127.02946586356,37.6150472966331,1130555500
"614","어반팟",NA,"음식","커피점/카페","커피전문점/카페/다방","목1동","서울특별시 양천구 오목로 354",126.876766269365,37.5239406644723,1147051000
"615","마노아",NA,"음식","커피점/카페","커피전문점/카페/다방","명일1동","서울특별시 강동구 상암로51길 31",127.146051209804,37.5479733252276,1174053000
"616","빽다방","오금역점","음식","커피점/카페","커피전문점/카페/다방","가락본동","서울특별시 송파구 오금로 306",127.126105166905,37.5028736267339,1171062000
"617","CG5",NA,"음식","커피점/카페","커피전문점/카페/다방","행운동","서울특별시 관악구 남부순환로 1953",126.966208328664,37.4763079898682,1162057500
"618","빽다방","건대역화양점","음식","커피점/카페","커피전문점/카페/다방","화양동","서울특별시 광진구 아차산로29길 29-1",127.068601720033,37.5422518179254,1121571000
"619","커피어시스트",NA,"음식","커피점/카페","커피전문점/카페/다방","서교동","서울특별시 마포구 양화로 100-20",126.919268068464,37.5522605155615,1144066000
"620","지니는이쁘다",NA,"음식","커피점/카페","커피전문점/카페/다방","도화동","서울특별시 마포구 마포대로4다길 17",126.944346187864,37.5362956720906,1144058500
"621","빽다방","명동중앙우체국점","음식","커피점/카페","커피전문점/카페/다방","명동","서울특별시 중구 남대문로 58-1",126.981850842876,37.56242188892,1114055000
"622","카페빈둥",NA,"음식","커피점/카페","커피전문점/카페/다방","월계1동","서울특별시 노원구 석계로15길 17",127.061123272988,37.6223765772507,1135056000
"623","내츄럴드림카페",NA,"음식","커피점/카페","커피전문점/카페/다방","목5동","서울특별시 양천구 목동동로 391",126.880242362545,37.5358493735383,1147055000
"624","카페게이트",NA,"음식","커피점/카페","커피전문점/카페/다방","신촌동","서울특별시 서대문구 신촌역로 19",126.94253796797,37.5585712637975,1141058500
"625","슈팅스타",NA,"음식","커피점/카페","보드게임카페","천호2동","서울특별시 강동구 올림픽로70길 51",127.126539913656,37.5393246492717,1174061000
"626","바늘노리",NA,"음식","커피점/카페","커피전문점/카페/다방","목1동","서울특별시 양천구 목동서로 213",126.870595896767,37.5280085767202,1147051000
"627","미커피",NA,"음식","커피점/카페","커피전문점/카페/다방","명동","서울특별시 중구 퇴계로24길 2-1",126.986968061639,37.5606728336922,1114055000
"628","그레이",NA,"음식","커피점/카페","커피전문점/카페/다방","화양동","서울특별시 광진구 광나루로 410",127.074998556359,37.546564073743,1121571000
"629","쥬씨중화역점","중화역점","음식","커피점/카페","커피전문점/카페/다방","중화2동","서울특별시 중랑구 동일로 805-1",127.078985173818,37.6023790699357,1126061000
"630","커피노키오",NA,"음식","커피점/카페","커피전문점/카페/다방","암사1동","서울특별시 강동구 암사길 30",127.132609370634,37.5516507664802,1174057000
"631","짠커피숍",NA,"음식","커피점/카페","커피전문점/카페/다방","암사1동","서울특별시 강동구 상암로 97",127.133765518817,37.5475864879371,1174057000
"632","군인공제회관카페",NA,"음식","커피점/카페","커피전문점/카페/다방","도곡2동","서울특별시 강남구 남부순환로 2806",127.052899458271,37.489099875394,1168065600
"633","디초콜릿커피앤드",NA,"음식","커피점/카페","커피전문점/카페/다방","논현1동","서울특별시 강남구 강남대로 556",127.021543509877,37.5115599257863,1168052100
"634","루트커피숍",NA,"음식","커피점/카페","커피전문점/카페/다방","홍제1동","서울특별시 서대문구 통일로 397",126.947380558663,37.5852312117832,1141062000
"635","달콤커피","대학로점","음식","커피점/카페","커피전문점/카페/다방","혜화동","서울특별시 종로구 창경궁로 234",126.998504052841,37.582486370455,1111065000
"636","호박이좋은카페",NA,"음식","커피점/카페","커피전문점/카페/다방","목1동","서울특별시 양천구 목동서로 221",126.870747706739,37.527694664839,1147051000
"637","MARIEMARC",NA,"음식","커피점/카페","커피전문점/카페/다방","역삼1동","서울특별시 강남구 강남대로94길 28",127.029581894014,37.4996332098094,1168064000
"638","카베하네커피공방",NA,"음식","커피점/카페","커피전문점/카페/다방","압구정동","서울특별시 강남구 언주로173길 15",127.032247760139,37.5279121063185,1168054500
"639","카파커피",NA,"음식","커피점/카페","커피전문점/카페/다방","가산동","서울특별시 금천구 디지털로9길 99",126.884793976844,37.481667685685,1154551000
"640","CGVARTHOUSE",NA,"음식","커피점/카페","커피전문점/카페/다방","압구정동","서울특별시 강남구 압구정로30길 45",127.029386418917,37.5243384831738,1168054500
"641","카페루이석촌호수점","석촌호수점","음식","커피점/카페","커피전문점/카페/다방","송파1동","서울특별시 송파구 송파대로48길 7",127.105235955393,37.5087364711412,1171058000
"642","THEVENTI",NA,"음식","커피점/카페","커피전문점/카페/다방","신촌동","서울특별시 서대문구 신촌로 125",126.939740656077,37.5562935759546,1141058500
"643","DUTCH&BEAN",NA,"음식","커피점/카페","커피전문점/카페/다방","역삼1동","서울특별시 강남구 강남대로94길 94",127.034814231133,37.500820417219,1168064000
"644","manna",NA,"음식","커피점/카페","생과일주스전문점","여의동","서울특별시 영등포구 의사당대로 127",126.926163737378,37.5204625862643,1156054000
"645","열매는달다",NA,"음식","커피점/카페","생과일주스전문점","성내2동","서울특별시 강동구 천호대로170길 34",127.132589538357,37.5338277449941,1174065000
"646","HN카페",NA,"음식","커피점/카페","커피전문점/카페/다방","길동","서울특별시 강동구 진황도로 85",127.136155010283,37.5366561662477,1174068500
"647","이디아","종암동점","음식","커피점/카페","커피전문점/카페/다방","종암동","서울특별시 성북구 종암로 105",127.033936945796,37.5995230359981,1129070500
"648","카페COMETE",NA,"음식","커피점/카페","커피전문점/카페/다방","양재2동","서울특별시 서초구 마방로10길 18-28",127.04271292782,37.4756550755159,1165065200
"649","A-BRAICK",NA,"음식","커피점/카페","커피전문점/카페/다방","서교동","서울특별시 마포구 동교로 106",126.913860216136,37.5544724984821,1144066000
"650","MANGOIXACADEMY",NA,"음식","커피점/카페","커피전문점/카페/다방","압구정동","서울특별시 강남구 도산대로 215",127.030168119545,37.5207587191625,1168054500
"651","반지앤디저트카페",NA,"음식","커피점/카페","커피전문점/카페/다방","서교동","서울특별시 마포구 와우산로29길 48-14",126.92779311198,37.5559964610462,1144066000
"652","JASS",NA,"음식","커피점/카페","커피전문점/카페/다방","서교동","서울특별시 마포구 양화로8길 9",126.916228474184,37.5503675030584,1144066000
"653","까","페105.불광점","음식","커피점/카페","커피전문점/카페/다방","불광1동","서울특별시 은평구 통일로68길 4",126.929264605192,37.6121082667336,1138052000
"654","현커피",NA,"음식","커피점/카페","커피전문점/카페/다방","조원동","서울특별시 관악구 조원중앙로 50",126.907607292256,37.4834666693148,1162072500
"655","위트러스트커피",NA,"음식","커피점/카페","커피전문점/카페/다방","구로3동","서울특별시 구로구 디지털로34길 43",126.898797191348,37.4851419229746,1153054000
"656","RichMango",NA,"음식","커피점/카페","커피전문점/카페/다방","신사동","서울특별시 강남구 논현로157길 55",127.024206023399,37.5207816949423,1168051000
"657","BOLACOFFEE",NA,"음식","커피점/카페","커피전문점/카페/다방","역삼1동","서울특별시 강남구 논현로 509",127.036078078957,37.5019210138113,1168064000
"658","빽다방둔촌동역점","둔촌동역점","음식","커피점/카페","커피전문점/카페/다방","성내3동","서울특별시 강동구 양재대로 1339",127.134988810662,37.5259430693418,1174066000
"659","카페모아",NA,"음식","커피점/카페","커피전문점/카페/다방","방배2동","서울특별시 서초구 방배선행길 12",126.983736602071,37.4735045925152,1165061000
"660","씨알",NA,"음식","커피점/카페","커피전문점/카페/다방","서교동","서울특별시 마포구 월드컵북로5길 21",126.917605814739,37.5568586067183,1144066000
"661","Qulznos",NA,"음식","커피점/카페","커피전문점/카페/다방","신사동","서울특별시 강남구 압구정로 144",127.024570123549,37.5249655804244,1168051000
"662","사주&타로",NA,"음식","커피점/카페","사주카페","논현1동","서울특별시 강남구 강남대로118길 38",127.026262845754,37.5070125639409,1168052100
"663","투썸플레이즈",NA,"음식","커피점/카페","커피전문점/카페/다방","신림동","서울특별시 관악구 신림로 350",126.929966107416,37.4855004207481,1162069500
"664","해피레몬",NA,"음식","커피점/카페","전통찻집/인삼찻집","자양3동","서울특별시 광진구 아차산로 262",127.072944230258,37.5369968145663,1121584000
"665","카페마루",NA,"음식","커피점/카페","커피전문점/카페/다방","신월4동","서울특별시 양천구 월정로 61",126.841171068522,37.524957321088,1147059000
"666","투썸플레이스커피",NA,"음식","커피점/카페","커피전문점/카페/다방","장안1동","서울특별시 동대문구 장한로 73",127.068354483246,37.5675693571634,1123065000
"667","espressamente",NA,"음식","커피점/카페","커피전문점/카페/다방","신사동","서울특별시 강남구 도산대로 139",127.023707369993,37.5182456187299,1168051000
"668","엔제리너스","롯데청량리패션점","음식","커피점/카페","커피전문점/카페/다방","전농1동","서울특별시 동대문구 왕산로 214",127.051129904848,37.584191612425,1123056000
"669","서울에소프레소",NA,"음식","커피점/카페","커피전문점/카페/다방","성수1가1동","서울특별시 성동구 왕십리로 64",127.044824949714,37.5432873097882,1120065000
"670","애견카페바우하우스",NA,"음식","커피점/카페","애견카페","서교동","서울특별시 마포구 양화로 64",126.915800178906,37.5502464358855,1144066000
"671","블리스",NA,"음식","커피점/카페","커피전문점/카페/다방","서초3동","서울특별시 서초구 반포대로30길 33",127.010307726815,37.4921297098008,1165053000
"672","카페드위드샨",NA,"음식","커피점/카페","커피전문점/카페/다방","서교동","서울특별시 마포구 와우산로29바길 25",126.925766882779,37.5552301800478,1144066000
"673","스타빈",NA,"음식","커피점/카페","커피전문점/카페/다방","길동","서울특별시 강동구 양재대로113길 8",127.139499191893,37.5380862301072,1174068500
"674","신양커피",NA,"음식","커피점/카페","커피전문점/카페/다방","자양3동","서울특별시 광진구 능동로 31",127.067716603894,37.5342705238264,1121584000
"675","떡다방",NA,"음식","커피점/카페","커피전문점/카페/다방","신촌동","서울특별시 서대문구 이화여대5길 20-5",126.944496938777,37.5585076999425,1141058500
"676","카페먼스",NA,"음식","커피점/카페","커피전문점/카페/다방","면목3.8동","서울특별시 중랑구 용마산로90길 15",127.096988129799,37.5877140165932,1126057500
"677","TheAkoffee",NA,"음식","커피점/카페","생과일주스전문점","압구정동","서울특별시 강남구 도산대로33길 20",127.029881478522,37.5219277324737,1168054500
"678","미스터투고",NA,"음식","커피점/카페","커피전문점/카페/다방","대치4동","서울특별시 강남구 선릉로82길 43",127.053486171037,37.50353951407,1168063000
"679","오픈키친",NA,"음식","커피점/카페","커피전문점/카페/다방","광장동","서울특별시 광진구 아차산로70길 26",127.101229647322,37.5419279915374,1121581000
"680","JOESBASCKET",NA,"음식","커피점/카페","커피전문점/카페/다방","이화동","서울특별시 종로구 동숭길 86",127.004306274415,37.582084936136,1111064000
"681","달달보드레",NA,"음식","커피점/카페","커피전문점/카페/다방","화양동","서울특별시 광진구 동일로24길 53-1",127.068091529375,37.5432389490246,1121571000
"682","CRACK",NA,"음식","커피점/카페","생과일주스전문점","이화동","서울특별시 종로구 대학로12길 53",127.004018057744,37.58162297368,1111064000
"683","퍼스트클래스",NA,"음식","커피점/카페","커피전문점/카페/다방","전농1동","서울특별시 동대문구 왕산로 200",127.046090105054,37.5798620225163,1123056000
"684","CACAOBEAN",NA,"음식","커피점/카페","커피전문점/카페/다방","신사동","서울특별시 강남구 도산대로17길 43",127.02356623976,37.5212629751043,1168051000
"685","원두볶는사람들",NA,"음식","커피점/카페","커피전문점/카페/다방","성내1동","서울특별시 강동구 성안로3길 72",127.125991360798,37.5271833606383,1174064000
"686","뚜또",NA,"음식","커피점/카페","커피전문점/카페/다방","낙성대동","서울특별시 관악구 봉천로 566",126.960222913909,37.4774538695016,1162058500
"687","MAMAS",NA,"음식","커피점/카페","커피전문점/카페/다방","역삼1동","서울특별시 강남구 논현로85길 7",127.03680587028,37.4989714884754,1168064000
"688","코나퀸즈",NA,"음식","커피점/카페","커피전문점/카페/다방","화곡6동","서울특별시 강서구 화곡로 311",126.849521844424,37.5520970679196,1150059100
"689","베데스다",NA,"음식","커피점/카페","커피전문점/카페/다방","성내2동","서울특별시 강동구 풍성로 147",127.128377272034,37.5311836661478,1174065000
"690","옐로우문",NA,"음식","커피점/카페","커피전문점/카페/다방","청담동","서울특별시 강남구 삼성로 767",127.047593893712,37.5230990947575,1168056500
"691","엠엠티에이치커피",NA,"음식","커피점/카페","커피전문점/카페/다방","수서동","서울특별시 강남구 밤고개로1길 10",127.101842066177,37.4880133628924,1168075000
"692","카페오주스",NA,"음식","커피점/카페","생과일주스전문점","여의동","서울특별시 영등포구 의사당대로 38",126.91867384416,37.5260167593971,1156054000
"693","YUMTHAI",NA,"음식","커피점/카페","커피전문점/카페/다방","논현1동","서울특별시 강남구 도산대로 138",127.023751162943,37.5174890970778,1168052100
"694","이디아커피",NA,"음식","커피점/카페","커피전문점/카페/다방","화곡3동","서울특별시 강서구 화곡로 133",126.83647852294,37.5408234671284,1150056000
"695","AgreatCafe",NA,"음식","커피점/카페","커피전문점/카페/다방","가산동","서울특별시 금천구 가산디지털1로 149",126.88184149489,37.4787293980852,1154551000
"696","쥬씨","당산역점","음식","커피점/카페","커피전문점/카페/다방","당산2동","서울특별시 영등포구 양평로 67",126.899298794634,37.5349292703139,1156056000
"697","Brick",NA,"음식","커피점/카페","커피전문점/카페/다방","화곡6동","서울특별시 강서구 화곡로 274",126.847498956333,37.5489687728489,1150059100
"698","타로",NA,"음식","커피점/카페","사주카페","신촌동","서울특별시 서대문구 신촌역로 19",126.94253796797,37.5585712637975,1141058500
"699","초코츄츄",NA,"음식","커피점/카페","커피전문점/카페/다방","금호4가동","서울특별시 성동구 금호로1길 43",127.023784366475,37.5479268316304,1120062000
"700","Mmth",NA,"음식","커피점/카페","커피전문점/카페/다방","가락본동","서울특별시 송파구 송파대로28길 24",127.120528281377,37.4942811664806,1171062000
"701","커피빈","차병원사거리점","음식","커피점/카페","커피전문점/카페/다방","논현2동","서울특별시 강남구 봉은사로 207",127.034644704252,37.5078382482953,1168053100
"702","디에떼에스프레소","서울숙대점","음식","커피점/카페","커피전문점/카페/다방","청파동","서울특별시 용산구 청파로47길 61",126.967006508919,37.5447586497479,1117055500
"703","케롯",NA,"음식","커피점/카페","커피전문점/카페/다방","종로1.2.3.4가동","서울특별시 종로구 종로 19",126.979902392746,37.5708388183663,1111061500
"704","슬로시티",NA,"음식","커피점/카페","커피전문점/카페/다방","양재1동","서울특별시 서초구 양재천로 135-8",127.04195541216,37.479199109233,1165065100
"705","카페앤갤러리",NA,"음식","커피점/카페","커피전문점/카페/다방","서교동","서울특별시 마포구 양화로 56",126.915026457958,37.5497527674532,1144066000
"706","AND",NA,"음식","커피점/카페","커피전문점/카페/다방","이화동","서울특별시 종로구 동숭길 94",127.004335316973,37.5824546079136,1111064000
"707","SELECTOCOFFEE",NA,"음식","커피점/카페","커피전문점/카페/다방","방이2동","서울특별시 송파구 백제고분로 494",127.114966867641,37.5141891038004,1171056200
"708","멜팅",NA,"음식","커피점/카페","커피전문점/카페/다방","구의2동","서울특별시 광진구 천호대로134길 2",127.090674602427,37.5491547173562,1121586000
"709","BrownHouse커피",NA,"음식","커피점/카페","커피전문점/카페/다방","양재2동","서울특별시 서초구 마방로 2",127.03913313025,37.4735625919103,1165065200
"710","베네",NA,"음식","커피점/카페","커피전문점/카페/다방","역삼1동","서울특별시 강남구 테헤란로 103",127.028341030686,37.4985147120069,1168064000
"711","민화랑",NA,"음식","커피점/카페","커피전문점/카페/다방","왕십리도선동","서울특별시 성동구 왕십리로24길 10-2",127.034112543313,37.5631493597566,1120053500
"712","리치빈스커피",NA,"음식","커피점/카페","커피전문점/카페/다방","논현1동","서울특별시 강남구 도산대로 158",127.02604572559,37.5184991980414,1168052100
"713","스타벅스","신사역점","음식","커피점/카페","커피전문점/카페/다방","논현1동","서울특별시 강남구 도산대로 108",127.020634740018,37.5161838031466,1168052100
"714","arco",NA,"음식","커피점/카페","커피전문점/카페/다방","신사동","서울특별시 강남구 강남대로158길 45",127.022122452283,37.5200706524613,1168051000
"715","벤",NA,"음식","커피점/카페","커피전문점/카페/다방","혜화동","서울특별시 종로구 창경궁로35길 7",127.001328007689,37.5863667495085,1111065000
"716","공원카페",NA,"음식","커피점/카페","커피전문점/카페/다방","방배1동","서울특별시 서초구 효령로31길 68",126.995183044474,37.4840907772906,1165060000
"717","JS카페트",NA,"음식","커피점/카페","커피전문점/카페/다방","논현2동","서울특별시 강남구 학동로 224",127.033484559732,37.514478536955,1168053100
"718","문커피",NA,"음식","커피점/카페","커피전문점/카페/다방","가락본동","서울특별시 송파구 송파대로28길 27",127.120080194832,37.4948815412923,1171062000
"719","에슬로우커피",NA,"음식","커피점/카페","커피전문점/카페/다방","묵1동","서울특별시 중랑구 공릉로 38",127.078184507862,37.6140323038407,1126062000
"720","커피에반하다",NA,"음식","커피점/카페","커피전문점/카페/다방","아현동","서울특별시 마포구 굴레방로 5-1",126.956321471374,37.5546752702843,1144055500
"721","쥬시",NA,"음식","커피점/카페","생과일주스전문점","대치4동","서울특별시 강남구 삼성로 301",127.060373150128,37.4990982229771,1168063000
"722","방방키즈카페",NA,"음식","커피점/카페","커피전문점/카페/다방","목1동","서울특별시 양천구 목동로 234",126.864499360543,37.5294007863581,1147051000
"723","CremaDoro",NA,"음식","커피점/카페","커피전문점/카페/다방","양재1동","서울특별시 서초구 성촌1길 6",127.02238863505,37.465820299928,1165065100
"724","카페심플리굿",NA,"음식","커피점/카페","커피전문점/카페/다방","구로3동","서울특별시 구로구 디지털로31길 38-21",126.893699961912,37.4865179558948,1153054000
"725","슬로우가든",NA,"음식","커피점/카페","커피전문점/카페/다방","자양3동","서울특별시 광진구 아차산로 262",127.072944230258,37.5369968145663,1121584000
"726","TOMNTOMSCOFFEE",NA,"음식","커피점/카페","커피전문점/카페/다방","염리동","서울특별시 마포구 신촌로 190",126.946685610225,37.5565990201342,1144061000
"727","카페코나퀸즈","마포점","음식","커피점/카페","커피전문점/카페/다방","도화동","서울특별시 마포구 마포대로 34",126.946137649125,37.5392490747721,1144058500
"728","엠엠티에이치커피",NA,"음식","커피점/카페","커피전문점/카페/다방","논현1동","서울특별시 강남구 도산대로8길 5",127.022155936019,37.5166379224606,1168052100
"729","플래이그라운드",NA,"음식","커피점/카페","애견카페","대치4동","서울특별시 강남구 역삼로 441",127.055109647259,37.5021558741108,1168063000
"730","엔티스",NA,"음식","커피점/카페","커피전문점/카페/다방","대치2동","서울특별시 강남구 영동대로 417",127.06367632201,37.5062788428701,1168061000
"731","J니시",NA,"음식","커피점/카페","커피전문점/카페/다방","성내3동","서울특별시 강동구 천호대로176길 58",127.135349220489,37.5319647735506,1174066000
"732","CERULEANcoffee",NA,"음식","커피점/카페","커피전문점/카페/다방","역삼1동","서울특별시 강남구 테헤란로4길 6",127.029459607276,37.4977219681228,1168064000
"733","할리스",NA,"음식","커피점/카페","커피전문점/카페/다방","화양동","서울특별시 광진구 광나루로 410",127.074998556359,37.546564073743,1121571000
"734","양재천커피볶는집",NA,"음식","커피점/카페","커피전문점/카페/다방","양재2동","서울특별시 서초구 마방로 44-1",127.042355237847,37.4762198444939,1165065200
"735","매머드커피",NA,"음식","커피점/카페","커피전문점/카페/다방","구로3동","서울특별시 구로구 디지털로31길 41",126.89273629885,37.4851573575664,1153054000
"736","커피베이강남선릉점","강남선릉점","음식","커피점/카페","커피전문점/카페/다방","삼성2동","서울특별시 강남구 선릉로100길 42",127.050778695333,37.506563357025,1168059000
"737","Viennacoffeehouse",NA,"음식","커피점/카페","커피전문점/카페/다방","구로3동","서울특별시 구로구 디지털로34길 43",126.898797191348,37.4851419229746,1153054000
"738","예랑떡카페",NA,"음식","커피점/카페","커피전문점/카페/다방","가산동","서울특별시 금천구 벚꽃로 298",126.883859005074,37.4814335948223,1154551000
"739","도노도노제이",NA,"음식","커피점/카페","커피전문점/카페/다방","이태원2동","서울특별시 용산구 회나무로28길 5",126.991861036598,37.5394230258539,1117066000
"740","커피스위트",NA,"음식","커피점/카페","커피전문점/카페/다방","가산동","서울특별시 금천구 벚꽃로 309",126.882545204463,37.4815833642367,1154551000
"741","사주타로",NA,"음식","커피점/카페","사주카페","논현1동","서울특별시 강남구 강남대로118길 57",127.027670797611,37.5074656784249,1168052100
"742","슈퍼커피",NA,"음식","커피점/카페","커피전문점/카페/다방","여의동","서울특별시 영등포구 의사당대로 110",126.923972675103,37.5210012915703,1156054000
"743","쉐이크",NA,"음식","커피점/카페","전통찻집/인삼찻집","자양3동","서울특별시 광진구 아차산로 262",127.072944230258,37.5369968145663,1121584000
"744","네일수다",NA,"음식","커피점/카페","커피전문점/카페/다방","자양3동","서울특별시 광진구 뚝섬로37길 11",127.071769504977,37.5350052710889,1121584000
"745","버스커",NA,"음식","커피점/카페","커피전문점/카페/다방","자양3동","서울특별시 광진구 아차산로 262",127.072944230258,37.5369968145663,1121584000
"746","커피지인",NA,"음식","커피점/카페","커피전문점/카페/다방","서초2동","서울특별시 서초구 강남대로51길 10",127.029271480487,37.4912868837866,1165052000
"747","카페저스트","공덕점","음식","커피점/카페","커피전문점/카페/다방","아현동","서울특별시 마포구 백범로 152",126.948231471906,37.5448542086873,1144055500
"748","재미로테이크아웃",NA,"음식","커피점/카페","커피전문점/카페/다방","명동","서울특별시 중구 퇴계로18길 9",126.985636152118,37.5604000952806,1114055000
"749","영인성",NA,"음식","커피점/카페","커피전문점/카페/다방","논현1동","서울특별시 강남구 봉은사로7길 11",127.027302524435,37.5062101815088,1168052100
"750","홍남다방",NA,"음식","커피점/카페","커피전문점/카페/다방","연희동","서울특별시 서대문구 홍제천로6길 25",126.925763847913,37.5743591847803,1141061500
"751","코코엔허",NA,"음식","커피점/카페","사주카페","사근동","서울특별시 성동구 마조로9길 17",127.039550045996,37.5610492298456,1120055000
"752","커피버넷",NA,"음식","커피점/카페","커피전문점/카페/다방","인헌동","서울특별시 관악구 봉천로 595-1",126.963685292796,37.4764390665755,1162062500
"753","모노레일",NA,"음식","커피점/카페","커피전문점/카페/다방","목1동","서울특별시 양천구 목동동로 233-1",126.871554250266,37.5274771147,1147051000
"754","MILL",NA,"음식","커피점/카페","커피전문점/카페/다방","장안2동","서울특별시 동대문구 답십리로69길 45-1",127.073658393786,37.5743779598907,1123066000
"755","모카향",NA,"음식","커피점/카페","커피전문점/카페/다방","군자동","서울특별시 광진구 능동로 269",127.077497212712,37.5540983842781,1121573000
"756","어투썸플레이스",NA,"음식","커피점/카페","커피전문점/카페/다방","양재2동","서울특별시 서초구 강남대로16길 3",127.039199912785,37.4709951144483,1165065200
"757","아리스타커피",NA,"음식","커피점/카페","커피전문점/카페/다방","성수2가1동","서울특별시 성동구 성수이로7길 32",127.053882924716,37.5419906364495,1120067000
"758","아브릴커피",NA,"음식","커피점/카페","커피전문점/카페/다방","대치4동","서울특별시 강남구 도곡로 435",127.05768799374,37.4985812529448,1168063000
"759","궁전",NA,"음식","커피점/카페","커피전문점/카페/다방","자양3동","서울특별시 광진구 뚝섬로 513",127.067393407585,37.5356916346523,1121584000
"760","OFete",NA,"음식","커피점/카페","커피전문점/카페/다방","화양동","서울특별시 광진구 능동로 111",127.070835091269,37.5410079404983,1121571000
"761","PaulBassett",NA,"음식","커피점/카페","커피전문점/카페/다방","역삼1동","서울특별시 강남구 테헤란로20길 9",127.034530014432,37.4991781738666,1168064000
"762","하루카페",NA,"음식","커피점/카페","커피전문점/카페/다방","둔촌2동","서울특별시 강동구 양재대로96길 29",127.13895288634,37.5295041840716,1174070000
"763","사주타로",NA,"음식","커피점/카페","사주카페","논현1동","서울특별시 강남구 강남대로118길 56",127.027447880593,37.5072115481803,1168052100
"764","커피다다",NA,"음식","커피점/카페","커피전문점/카페/다방","방학1동","서울특별시 도봉구 도당로27길 43",127.040797771716,37.6693011385167,1132069000
"765","인터뷰",NA,"음식","커피점/카페","커피전문점/카페/다방","구의3동","서울특별시 광진구 아차산로62길 8",127.093364564082,37.5391647069561,1121587000
"766","한강커피숍",NA,"음식","커피점/카페","커피전문점/카페/다방","성수2가1동","서울특별시 성동구 동일로 67",127.061886368426,37.5390359693707,1120067000
"767","보드스토리",NA,"음식","커피점/카페","보드게임카페","화양동","서울특별시 광진구 동일로22길 104",127.069785958588,37.5407473861764,1121571000
"768","런던티",NA,"음식","커피점/카페","전통찻집/인삼찻집","자양3동","서울특별시 광진구 아차산로 262",127.072944230258,37.5369968145663,1121584000
"769","마니커피",NA,"음식","커피점/카페","커피전문점/카페/다방","서초3동","서울특별시 서초구 서초대로 283",127.012673487441,37.4936722880154,1165053000
"770","더가든커피",NA,"음식","커피점/카페","커피전문점/카페/다방","서초3동","서울특별시 서초구 서초대로40길 77",127.008686069214,37.4881965239076,1165053000
"771","카페클라라",NA,"음식","커피점/카페","커피전문점/카페/다방","서초2동","서울특별시 서초구 효령로74길 36",127.026462281167,37.4864250942992,1165052000
"772","스윗트가든",NA,"음식","커피점/카페","커피전문점/카페/다방","서초3동","서울특별시 서초구 효령로52길 12",127.012759052189,37.4837343606311,1165053000
"773","다산카페",NA,"음식","커피점/카페","커피전문점/카페/다방","서교동","서울특별시 마포구 독막로3길 39",126.917365114501,37.5500265254248,1144066000
"774","백다방",NA,"음식","커피점/카페","커피전문점/카페/다방","대치4동","서울특별시 강남구 선릉로86길 8",127.050483801514,37.5030558800612,1168063000
"775","투썸플레이스","구로부자의탄생점","음식","커피점/카페","커피전문점/카페/다방","구로3동","서울특별시 구로구 디지털로 288",126.895484835804,37.4835612005581,1153054000
"776","쥬씨","강서화곡역점","음식","커피점/카페","커피전문점/카페/다방","화곡3동","서울특별시 강서구 화곡로 143",126.837605289963,37.5411319059024,1150056000
"777","BREAKFAST",NA,"음식","커피점/카페","커피전문점/카페/다방","역삼1동","서울특별시 강남구 테헤란로25길 10",127.035487411005,37.5012404010568,1168064000
"778","스타벅스새문안로점","새문안로점","음식","커피점/카페","커피전문점/카페/다방","사직동","서울특별시 종로구 새문안로 92",126.974868861844,37.5697229770514,1111053000
"779","커빙",NA,"음식","커피점/카페","커피전문점/카페/다방","왕십리도선동","서울특별시 성동구 무학로2길 19",127.032110098382,37.5639439013128,1120053500
"780","POCOPOCO",NA,"음식","커피점/카페","커피전문점/카페/다방","가산동","서울특별시 금천구 시흥대로153길 79",126.894234270165,37.4763501297197,1154551000
"781","이디야커피","가산에이스점","음식","커피점/카페","커피전문점/카페/다방","가산동","서울특별시 금천구 가산디지털1로 196",126.881269655342,37.4829589044718,1154551000
"782","KOTSUNI",NA,"음식","커피점/카페","커피전문점/카페/다방","암사2동","서울특별시 강동구 올림픽로93길 12",127.126513437636,37.5493531931501,1174058000
"783","커피더캠프로스터스&마카롱",NA,"음식","커피점/카페","커피전문점/카페/다방","양평1동","서울특별시 영등포구 영등포로11길 22-1",126.888340652931,37.524626846759,1156061000
"784","10카페",NA,"음식","커피점/카페","커피전문점/카페/다방","여의동","서울특별시 영등포구 여의대방로69길 28",126.930211689737,37.5213913562231,1156054000
"785","할리스",NA,"음식","커피점/카페","커피전문점/카페/다방","구로3동","서울특별시 구로구 디지털로32나길 38",126.901180619405,37.4845333814883,1153054000
"786","도티",NA,"음식","커피점/카페","커피전문점/카페/다방","목1동","서울특별시 양천구 목동서로 170",126.873277717693,37.5302327290978,1147051000
"787","어투썸플레이스",NA,"음식","커피점/카페","커피전문점/카페/다방","서초2동","서울특별시 서초구 서초대로74길 3",127.02618648158,37.4972174722947,1165052000
"788","테이크아웃커피",NA,"음식","커피점/카페","커피전문점/카페/다방","종로1.2.3.4가동","서울특별시 종로구 종로 114",126.990180338996,37.5700621843627,1111061500
"789","PRANERNcoffee",NA,"음식","커피점/카페","커피전문점/카페/다방","역삼1동","서울특별시 강남구 논현로85길 46",127.034270335263,37.4982659851402,1168064000
"790","스터디카페",NA,"음식","커피점/카페","커피전문점/카페/다방","대흥동","서울특별시 마포구 신촌로 160",126.943372765731,37.5563621789881,1144060000
"791","아지트카페",NA,"음식","커피점/카페","커피전문점/카페/다방","서교동","서울특별시 마포구 월드컵북로1길 50",126.918879931053,37.5540590401427,1144066000
"792","우향다원",NA,"음식","커피점/카페","전통찻집/인삼찻집","도곡1동","서울특별시 강남구 남부순환로 2747",127.046557895543,37.4871476346365,1168065500
"793","빽다방명일역점","명일역점","음식","커피점/카페","커피전문점/카페/다방","명일1동","서울특별시 강동구 구천면로 418",127.145015066217,37.5505068029229,1174053000
"794","GOOTAO",NA,"음식","커피점/카페","생과일주스전문점","역삼1동","서울특별시 강남구 테헤란로4길 6",127.029459607276,37.4977219681228,1168064000
"795","파인트리커피",NA,"음식","커피점/카페","커피전문점/카페/다방","구로3동","서울특별시 구로구 디지털로33길 55",126.893029460145,37.4867459473917,1153054000
"796","탐앤탐스","고속터미널역점","음식","커피점/카페","커피전문점/카페/다방","반포4동","서울특별시 서초구 신반포로 188",127.004876674518,37.5034373619191,1165058100
"797","소나기",NA,"음식","커피점/카페","커피전문점/카페/다방","천호2동","서울특별시 강동구 구천면로 251",127.131252229062,37.5427924323881,1174061000
"798","스터디카페북킹",NA,"음식","커피점/카페","커피전문점/카페/다방","상계6.7동","서울특별시 노원구 동일로 1345",127.06184597611,37.6486926042507,1135069500
"799","사루비아",NA,"음식","커피점/카페","커피전문점/카페/다방","신사동","서울특별시 강남구 도산대로15길 25",127.023584907696,37.5198304574929,1168051000
"800","카페자작나무",NA,"음식","커피점/카페","커피전문점/카페/다방","독산1동","서울특별시 금천구 가산로 61",126.895894451079,37.4718604109841,1154561000
"801","EDIYA커피",NA,"음식","커피점/카페","커피전문점/카페/다방","논현2동","서울특별시 강남구 선릉로 661",127.041569691491,37.5155806321161,1168053100
"802","COFFEEBAY",NA,"음식","커피점/카페","커피전문점/카페/다방","방이2동","서울특별시 송파구 백제고분로 469",127.113255825288,37.5125273334087,1171056200
"803","고도",NA,"음식","커피점/카페","커피전문점/카페/다방","목1동","서울특별시 양천구 오목로56길 2",126.873753367012,37.5241822823901,1147051000
"804","카페인터뷰",NA,"음식","커피점/카페","커피전문점/카페/다방","서교동","서울특별시 마포구 양화로21길 21",126.924840120983,37.5590781905224,1144066000
"805","cocobruni",NA,"음식","커피점/카페","커피전문점/카페/다방","압구정동","서울특별시 강남구 선릉로 803",127.038951357158,37.5239301362335,1168054500
"806","빽다방","구로로제리움점","음식","커피점/카페","커피전문점/카페/다방","구로4동","서울특별시 구로구 가마산로26길 5",126.890980502825,37.496079587908,1153055000
"807","루스티끄",NA,"음식","커피점/카페","커피전문점/카페/다방","서초3동","서울특별시 서초구 반포대로21길 39",127.008284879122,37.4868956371248,1165053000
"808","스타벅스","까치산역점","음식","커피점/카페","커피전문점/카페/다방","화곡1동","서울특별시 강서구 강서로13길 3",126.846035970796,37.5322853352387,1150054000
"809","카페아이엠티","마포아크로타워점","음식","커피점/카페","커피전문점/카페/다방","도화동","서울특별시 마포구 마포대로 68",126.949139204869,37.5414563490381,1144058500
"810","달콤한홍콩",NA,"음식","커피점/카페","커피전문점/카페/다방","성산1동","서울특별시 마포구 월드컵북로 132",126.912613161081,37.5647418582439,1144072000
"811","통쌀카페쌀리다",NA,"음식","커피점/카페","커피전문점/카페/다방","상계2동","서울특별시 노원구 상계로18길 39",127.070209589126,37.6568320925007,1135064000
"812","큐풀러스",NA,"음식","커피점/카페","커피전문점/카페/다방","명동","서울특별시 중구 명동8길 37-14",126.985467769439,37.5619664628732,1114055000
"813","스타벅스올림픽평화의문점","올림픽평화의문점","음식","커피점/카페","커피전문점/카페/다방","방이2동","서울특별시 송파구 위례성대로 38",127.116316775923,37.5157850739286,1171056200
"814","커피829","교대본점","음식","커피점/카페","커피전문점/카페/다방","서초3동","서울특별시 서초구 반포대로28길 91",127.013190570558,37.4921898678168,1165053000
"815","미미당",NA,"음식","커피점/카페","커피전문점/카페/다방","회기동","서울특별시 동대문구 회기로 143-1",127.052563367193,37.5916907979461,1123071000
"816","아틀리에",NA,"음식","커피점/카페","커피전문점/카페/다방","천연동","서울특별시 서대문구 통일로9길 6-24",126.964191198816,37.5674762862301,1141052000
"817","트윈275",NA,"음식","커피점/카페","커피전문점/카페/다방","양재2동","서울특별시 서초구 마방로10길 25",127.044261280517,37.4765866907651,1165065200
"818","놀숲","신촌점","음식","커피점/카페","커피전문점/카페/다방","신촌동","서울특별시 서대문구 명물길 37",126.938169004079,37.5585771032133,1141058500
"819","Supercoffee",NA,"음식","커피점/카페","커피전문점/카페/다방","수서동","서울특별시 강남구 밤고개로1길 10",127.101842066177,37.4880133628924,1168075000
"820","중앙다방",NA,"음식","커피점/카페","커피전문점/카페/다방","구의1동","서울특별시 광진구 광나루로 532",127.088488124277,37.5446956725291,1121585000
"821","커피하우스",NA,"음식","커피점/카페","커피전문점/카페/다방","논현1동","서울특별시 강남구 도산대로 144",127.02464133078,37.5177577565955,1168052100
"822","Mr,Breeze커피",NA,"음식","커피점/카페","커피전문점/카페/다방","화곡1동","서울특별시 강서구 강서로 21",126.847510098506,37.5298669324506,1150054000
"823","coffee&beer",NA,"음식","커피점/카페","커피전문점/카페/다방","역삼1동","서울특별시 강남구 테헤란로 327",127.047209664779,37.5043811001854,1168064000
"824","투썸플레이스","약수역점","음식","커피점/카페","커피전문점/카페/다방","다산동","서울특별시 중구 다산로 111",127.009796019231,37.5539735072081,1114062500
"825","쥬씨강동역점","강동역점","음식","커피점/카페","커피전문점/카페/다방","천호3동","서울특별시 강동구 성안로 155",127.134700332632,37.5372041712106,1174062000
"826","전통찻집",NA,"음식","커피점/카페","커피전문점/카페/다방","종로1.2.3.4가동","서울특별시 종로구 종로1길 42",126.978966379844,37.5738942645562,1111061500
"827","커피베이","강서방화점","음식","커피점/카페","커피전문점/카페/다방","방화1동","서울특별시 강서구 금낭화로 91-2",126.811063028353,37.573638084054,1150063000
"828","키커피코리아",NA,"음식","커피점/카페","커피전문점/카페/다방","회현동","서울특별시 중구 퇴계로 77",126.980758504179,37.5603490764434,1114054000
"829","리틀제이콥스",NA,"음식","커피점/카페","커피전문점/카페/다방","서초3동","서울특별시 서초구 서초대로 250",127.009257830783,37.491994761973,1165053000
"830","꼬메노",NA,"음식","커피점/카페","커피전문점/카페/다방","화양동","서울특별시 광진구 군자로7길 29",127.069069438417,37.5455893954099,1121571000
"831","까페라운지",NA,"음식","커피점/카페","커피전문점/카페/다방","서초3동","서울특별시 서초구 서초대로48길 84",127.012358713367,37.489236465809,1165053000
"832","카페보니또","반포점","음식","커피점/카페","커피전문점/카페/다방","반포1동","서울특별시 서초구 사평대로55길 123",127.020330134853,37.5091981202528,1165056000
